     2.11           OBSERVATION DATA    M (MIXED)           RINEX VERSION / TYPE
SIMOBS              X                   20200731 063149 UTC PGM / RUN BY / DATE 
SIMULATED OBS DATA                                          COMMENT             
From Mapoet.Niphy                                           COMMENT             
SHAO                                                        MARKER NAME         
                                                            MARKER NUMBER       
                                                            OBSERVER / AGENCY   
                                                            REC # / TYPE / VERS 
                                                            ANT # / TYPE        
 -2646643.2612  4584120.5979  3546465.5763                  APPROX POSITION XYZ 
        0.0000        0.0000        0.0000                  ANTENNA: DELTA H/E/N
     1     1                                                WAVELENGTH FACT L1/2
     5    L1    L2    P1    P2    S1                        # / TYPES OF OBSERV 
  2012     1     1     0     0    0.0000000     GPS         TIME OF FIRST OBS   
  2012     1     2     0     0    0.0000000     GPS         TIME OF LAST OBS    
                                                            END OF HEADER       
 12  1  1  0  0  0.0000000  0 11G 1G 2G 5G 8G 9G12G18G20G21G28G29
         0.347           0.052    21358615.344    21358618.649          12.500  
         0.004           0.784    21358584.059    21358587.519          12.250  
         0.434           0.437    23900610.787    23900616.919          11.750  
         0.463           0.499    25005347.929    25005357.665          11.000  
         0.739           0.861    22884744.360    22884749.090          11.000  
         0.081           0.063    22530006.759    22530011.902          12.000  
         0.375           0.468    21938185.870    21938189.511          12.250  
         0.556           0.946    25493338.860    25493351.514           9.750  
         0.907           0.250    21373500.733    21373504.169          12.500  
         0.921           0.449    25475691.234    25475698.951           9.500  
         0.600           0.046    20629582.878    20629585.500          13.000  
 12  1  1  0  0 30.0000000  0 10G 1G 2G 5G 8G 9G12G18G21G28G29
     68530.345       53399.972    21371656.104    21371659.234          12.250  
     68529.320       53400.159    21371624.490    21371628.374          12.250  
    -98664.239      -76881.098    23881835.528    23881841.785          10.750  
    100507.053       78317.025    25024474.017    25024484.803          10.250  
     95700.943       74572.325    22902955.294    22902960.971          11.250  
     87740.551       68369.141    22546703.918    22546708.881          12.000  
    -51287.967      -39964.467    21928425.813    21928429.518          12.250  
    -35935.747      -28002.348    21366662.623    21366665.425          12.500  
    -37957.837      -29577.871    25468468.557    25468473.934          10.000  
    -35038.289      -27302.990    20622915.229    20622917.988          12.750  
 12  1  1  0  1  0.0000000  0 10G 1G 2G 5G 8G 9G12G18G21G28G29
    137310.194      106994.605    21384744.627    21384747.780          12.250  
    137308.467      106994.232    21384712.919    21384716.495          12.250  
   -197134.308     -153610.945    23863097.547    23863103.443          10.750  
    200864.647      156517.484    25043569.659    25043581.101          10.250  
    191603.969      149301.844    22921204.988    22921211.115          11.000  
    175586.838      136820.674    22563420.316    22563425.614          12.250  
   -102491.902      -79863.628    21918682.060    21918685.927          12.250  
    -71335.248      -55586.369    21359926.076    21359929.203          12.250  
    -75508.757      -58838.373    25461323.325    25461329.311          10.000  
    -69631.278      -54258.579    20616332.182    20616335.183          12.500  
 12  1  1  0  1 30.0000000  0 10G 1G 2G 5G 8G 9G12G18G21G28G29
    206337.688      160782.206    21397880.105    21397883.413          12.250  
    206335.263      160781.297    21397848.403    21397851.840          12.250  
   -295408.449     -230188.104    23844396.344    23844402.096          11.000  
    301070.710      234599.915    25062639.491    25062651.755          10.500  
    287706.293      224186.615    22939492.603    22939498.869          11.000  
    263537.324      205353.408    22580156.894    22580161.920          12.000  
   -153611.075     -119696.758    21908954.463    21908958.156          12.000  
   -106195.874      -82750.492    21353292.243    21353295.559          12.500  
   -112650.943      -87780.394    25454254.742    25454260.923          10.000  
   -103776.413      -80865.203    20609834.461    20609837.295          12.500  
 12  1  1  0  2  0.0000000  0 10G 1G 2G 5G 8G 9G12G18G21G28G29
    275610.666      214761.078    21411062.506    21411065.558          12.250  
    275607.569      214759.639    21411030.279    21411034.300          12.250  
   -393485.327     -306611.589    23825733.214    23825738.458          10.750  
    401122.670      312562.330    25081679.124    25081688.911          10.250  
    384004.358      299223.926    22957817.456    22957823.414          11.250  
    351590.396      273966.094    22596912.423    22596917.985          11.750  
   -204645.147     -159463.574    21899242.994    21899246.693          12.250  
   -140515.954     -109493.410    21346761.117    21346765.003          12.500  
   -149383.493     -116403.239    25447266.248    25447270.925          10.250  
   -137471.780     -107121.336    20603422.512    20603425.392          12.750  
 12  1  1  0  2 30.0000000  0  9G 1G 2G 5G 9G12G18G21G28G29
    345126.933      268929.524    21424290.514    21424294.198          12.250  
    345123.161      268927.570    21424258.705    21424262.840          12.250  
   -491363.656     -382880.387    23807107.300    23807113.392          11.000  
    480494.643      374410.982    22976179.859    22976184.875          11.250  
    439744.418      342657.420    22613687.776    22613693.113          11.750  
   -255593.750     -199163.781    21889547.961    21889551.812          12.000  
   -174293.811     -135813.828    21340333.542    21340337.142          12.250  
   -185705.780     -144706.299    25440353.745    25440359.217          10.250  
   -170715.427     -133025.484    20597096.437    20597099.358          12.500  
 12  1  1  0  3  0.0000000  0  9G 1G 2G 5G 9G12G18G21G28G29
    414884.321      323285.863    21437565.315    21437568.657          12.500  
    414879.882      323283.363    21437532.903    21437537.038          12.250  
   -589042.153     -458993.454    23788519.562    23788525.671          11.000  
    577173.516      449745.035    22994576.940    22994582.442          11.000  
    527997.823      411426.173    22630481.431    22630487.285          11.750  
   -306456.530     -238797.131    21879869.664    21879872.946          12.250  
   -207527.837     -161710.469    21334009.200    21334012.844          12.500  
   -221616.774     -172688.979    25433521.184    25433525.140          10.500  
   -203505.410     -158576.145    20590856.729    20590859.404          12.500  
 12  1  1  0  3 30.0000000  0  9G 1G 2G 5G 9G12G18G21G28G29
    484880.659      377828.388    21450885.092    21450888.287          12.500  
    484875.535      377825.359    21450852.767    21450856.967          12.250  
   -686519.577     -534949.820    23769970.610    23769977.289          10.750  
    674037.516      525223.317    23013009.301    23013015.083          11.250  
    616348.975      480271.090    22647294.484    22647300.233          11.750  
   -357233.117     -278363.300    21870206.683    21870210.328          12.250  
   -240216.419     -187182.083    21327788.954    21327792.589          12.500  
   -257115.775     -200350.577    25426765.298    25426770.071          10.250  
   -235839.825     -183771.810    20584703.753    20584706.420          12.500  
 12  1  1  0  4  0.0000000  0  9G 1G 2G 5G 9G12G18G21G28G29
    555113.749      432555.404    21464250.061    21464253.477          12.250  
    555107.950      432551.854    21464217.395    21464221.875          12.500  
   -783794.609     -610748.497    23751459.737    23751466.542          10.750  
    771083.049      600843.062    23031477.046    23031482.035          11.000  
    704796.276      549190.971    22664126.074    22664131.472          12.000  
   -407923.121     -317862.003    21860560.640    21860564.431          12.250  
   -272357.929     -212227.420    21321672.309    21321676.438          12.500  
   -292202.105     -227690.677    25420089.698    25420094.480          10.500  
   -267716.783     -208611.020    20578637.733    20578640.468          12.500  
 12  1  1  0  4 30.0000000  0  9G 1G 2G 5G 9G12G18G21G28G29
    625581.445      487465.227    21477659.382    21477663.398          12.250  
    625574.978      487461.164    21477627.251    21477630.933          12.500  
   -880865.966     -686388.463    23732987.573    23732993.561          11.250  
    868306.579      676601.513    23049978.162    23049983.297          11.750  
    793338.179      618184.538    22680975.279    22680980.444          12.000  
   -458526.154     -357292.919    21850931.331    21850934.710          12.250  
   -303950.808     -236845.261    21315660.688    21315664.157          12.500  
   -326874.953     -254708.464    25413490.578    25413496.656          10.500  
   -299134.385     -233092.284    20572659.147    20572661.817          12.500  
 12  1  1  0  5  0.0000000  0  9G 1G 2G 5G 9G12G18G21G28G29
    696281.586      542556.167    21491113.226    21491117.729          12.000  
    696274.469      542551.627    21491081.477    21491084.767          12.500  
   -977732.421     -761868.731    23714554.475    23714560.134          11.500  
    965704.568      752495.902    23068512.421    23068517.768          12.000  
    881973.109      687250.575    22697841.634    22697847.095          12.000  
   -509041.802     -396655.774    21841318.228    21841321.770          12.250  
   -334993.532     -261034.407    21309753.508    21309757.039          12.250  
   -361133.483     -281403.482    25406972.572    25406975.592          10.000  
   -330090.771     -257214.150    20566768.358    20566771.311          12.500  
 12  1  1  0  5 30.0000000  0  9G 1G 2G 5G 9G12G18G21G28G29
    767212.027      597826.558    21504611.218    21504615.030          12.250  
    767204.222      597821.516    21504578.554    21504582.212          12.500  
  -1074392.685     -837188.325    23696160.841    23696167.174          11.500  
   1063273.476      828523.497    23087078.918    23087084.385          11.750  
    970699.505      756387.910    22714725.956    22714731.212          11.750  
   -559469.677     -435950.230    21831722.337    21831725.951          12.250  
   -365484.560     -284793.641    21303951.306    21303954.809          12.500  
   -394976.987     -307775.122    25400532.510    25400535.631          10.000  
   -360584.063     -280975.183    20560965.803    20560968.633          12.750  
 12  1  1  0  6  0.0000000  0  9G 1G 2G 5G 9G12G18G21G28G29
    838370.583      653274.704    21518152.206    21518155.741          12.500  
    838362.151      653269.142    21518119.528    21518123.312          12.500  
  -1170845.510     -912346.321    23677805.723    23677812.619          11.250  
   1161009.807      904681.505    23105677.887    23105683.662          11.250  
   1059515.818      825595.298    22731627.188    22731632.955          12.000  
   -609809.400     -475175.974    21822142.830    21822146.689          12.000  
   -395422.393     -308121.823    21298253.945    21298257.654          12.250  
   -428404.890     -333822.840    25394171.210    25394175.040          10.000  
   -390612.422     -304373.922    20555251.436    20555254.444          12.500  
 12  1  1  0  6 30.0000000  0  9G 1G 2G 5G 9G12G18G21G28G29
    909755.097      708898.959    21531736.368    21531739.829          12.500  
    909746.049      708892.887    21531703.468    21531707.285          12.250  
  -1267089.649     -987341.704    23659491.009    23659497.494          11.500  
   1258909.980      980967.191    23124307.815    23124313.986          11.250  
   1148420.459      894871.542    22748545.263    22748550.873          11.750  
   -660060.521     -514332.683    21812580.738    21812584.167          12.000  
   -424805.578     -331017.788    21292662.614    21292665.972          12.500  
   -461416.319     -359546.160    25387887.706    25387893.638           9.750  
   -420174.018     -327408.945    20549626.098    20549628.799          12.500  
 12  1  1  0  7  0.0000000  0  9G 1G 2G 5G 9G12G18G21G28G29
    981363.474      764697.626    21545362.985    21545366.608          12.500  
    981353.791      764691.041    21545330.129    21545333.751          12.250  
  -1363123.894    -1062173.538    23641216.398    23641222.022          11.500  
   1356970.460     1057377.826    23142968.343    23142974.074          11.250  
   1237411.960      964215.442    22765479.770    22765485.284          11.750  
   -710222.619     -553420.042    21803035.543    21803038.585          12.000  
   -453632.629     -353480.438    21287176.888    21287180.461          12.500  
   -494010.813     -384944.473    25381685.610    25381690.159          10.500  
   -449267.014     -350078.828    20544089.735    20544092.680          12.500  
 12  1  1  0  7 30.0000000  0  9G 1G 2G 5G 9G12G18G21G28G29
   1053193.574      820669.037    21559032.126    21559035.396          12.500  
   1053183.228      820661.965    21558998.554    21559002.654          12.250  
  -1458946.993    -1136840.845    23622981.694    23622987.962          11.250  
   1455187.748     1133910.646    23161658.108    23161664.332          11.250  
   1326488.776     1033625.800    22782430.990    22782436.534          11.750  
   -760295.250     -592437.677    21793506.669    21793510.408          12.000  
   -481902.124     -375508.615    21281797.266    21281800.888          12.500  
   -526187.722     -410017.384    25375563.201    25375567.849          11.250  
   -477889.598     -372382.153    20538643.142    20538646.158          12.250  
 12  1  1  0  8  0.0000000  0  9G 1G 2G 5G 9G12G18G21G28G29
   1125243.204      876811.518    21572742.574    21572746.467          12.250  
   1125232.230      876803.964    21572708.914    21572712.884          12.250  
  -1554557.787    -1211342.695    23604787.464    23604793.731          11.250  
   1553558.315     1210562.883    23180377.784    23180383.825          11.500  
   1415649.343     1103101.462    22799397.606    22799402.712          12.000  
   -810278.028     -631385.288    21783995.318    21783998.947          12.250  
   -509612.653     -397101.254    21276524.331    21276527.820          12.500  
   -557946.128     -434764.335    25369519.225    25369524.349          10.500  
   -506039.982     -394317.513    20533286.517    20533289.430          12.750  
 12  1  1  0  8 30.0000000  0  9G 1G 2G 5G 9G12G18G21G28G29
   1197510.275      933123.456    21586494.571    21586498.102          12.500  
   1197498.680      933115.403    21586460.867    21586465.011          12.250  
  -1649954.966    -1285678.072    23586634.292    23586640.157          10.750  
   1652078.647     1287331.791    23199126.079    23199132.049          11.250  
   1504892.221     1172641.243    22816380.446    22816385.293          11.750  
   -860170.422     -670262.494    21774500.976    21774504.571          12.250  
   -536762.865     -418257.267    21271358.155    21271361.331          12.500  
   -589285.674     -459184.756    25363556.616    25363561.461          10.250  
   -533716.378     -415883.566    20528019.940    20528022.557          12.750  
 12  1  1  0  9  0.0000000  0  9G 1G 2G 5G 9G12G18G21G28G29
   1269992.674      989603.147    21600287.625    21600291.342          12.500  
   1269980.445      989594.613    21600254.036    21600257.599          12.000  
  -1745137.343    -1359846.113    23568521.265    23568527.051          10.750  
   1750745.261     1364214.679    23217901.507    23217907.757          11.000  
   1594215.854     1242243.973    22833377.837    22833383.175          11.500  
   -909972.038     -709068.943    21765023.775    21765027.710          12.250  
   -563351.354     -438975.565    21266298.568    21266301.498          12.250  
   -620205.654     -483278.340    25357673.042    25357678.503          10.250  
   -560917.014     -437078.897    20522843.812    20522846.531          12.750  
 12  1  1  0  9 30.0000000  0  9G 1G 2G 5G 9G12G18G21G28G29
   1342688.243     1046248.982    21614121.258    21614125.279          12.500  
   1342675.396     1046239.959    21614087.694    21614091.146          12.250  
  -1840103.766    -1433845.882    23550449.766    23550455.761          10.750  
   1849554.524     1441208.776    23236704.195    23236710.403          11.000  
   1683618.792     1311908.453    22850391.016    22850396.512          11.500  
   -959682.396     -747804.292    21755564.474    21755568.050          12.500  
   -589376.806     -459255.148    21261345.875    21261349.257          12.000  
   -650705.486     -507044.423    25351869.092    25351874.552           9.500  
   -587640.148     -457902.133    20517758.537    20517761.336          12.750  
 12  1  1  0 10  0.0000000  0  9G 1G 2G 5G 9G12G18G21G28G29
   1415594.889     1103059.283    21627994.528    21627999.034          12.250  
   1415581.443     1103049.770    21627961.861    21627964.790          12.000  
  -1934853.008    -1507676.416    23532419.407    23532425.354          11.250  
   1948503.055     1518311.340    23255533.659    23255539.543          11.500  
   1773099.548     1381633.595    22867418.512    22867424.448          11.500  
  -1009301.037     -786468.180    21746122.257    21746125.829          12.500  
   -614837.921     -479094.960    21256500.635    21256504.198          12.250  
   -680784.566     -530482.729    25346144.016    25346150.557           9.500  
   -613884.043     -478351.935    20512764.329    20512767.367          12.500  
 12  1  1  0 10 30.0000000  0  9G 1G 2G 5G 9G12G18G21G28G29
   1488710.505     1160032.417    21641908.256    21641912.309          12.000  
   1488696.437     1160022.442    21641875.139    21641878.251          12.250  
  -2029383.900    -1581336.777    23514430.758    23514436.751          11.250  
   2047587.292     1595519.668    23274389.072    23274395.039          11.250  
   1862656.622     1451418.188    22884460.414    22884466.093          11.750  
  -1058827.472     -825060.202    21736697.757    21736701.279          12.250  
   -639733.380     -498494.037    21251762.967    21251766.694          12.250  
   -710442.409     -553592.736    25340499.774    25340505.437           9.500  
   -639646.975     -498426.950    20507861.824    20507864.823          12.750  
 12  1  1  0 11  0.0000000  0  9G 1G 2G 5G 9G12G18G21G28G29
   1562032.985     1217166.734    21655861.129    21655865.364          12.000  
   1562018.307     1217156.302    21655827.678    21655831.163          12.250  
  -2123695.219    -1654826.074    23496484.341    23496489.839          11.250  
   2146803.727     1672831.018    23293269.147    23293275.270          11.750  
   1952288.538     1521261.126    22901516.550    22901522.932          12.250  
  -1108261.229     -863580.018    21727290.798    21727294.398          12.500  
   -664061.945     -517451.376    21247133.467    21247137.358          12.250  
   -739678.406     -576374.152    25334936.067    25334942.378           9.750  
   -664927.228     -518125.859    20503051.215    20503054.120          12.750  
 12  1  1  0 11 30.0000000  0  9G 1G 2G 5G 9G12G18G21G28G29
   1635560.223     1274460.603    21669852.992    21669857.002          12.000  
   1635544.944     1274449.707    21669819.214    21669822.824          12.000  
  -2217785.870    -1728143.386    23478579.394    23478585.567          11.000  
   2246148.873     1750242.672    23312174.070    23312180.100          11.000  
   2041993.886     1591161.274    22918587.677    22918593.249          12.000  
  -1157601.810     -902027.218    21717901.693    21717905.246          12.500  
   -687822.365     -535965.982    21242612.167    21242616.060          12.500  
   -768492.146     -598826.472    25329454.428    25329460.580          10.500  
   -689723.105     -537447.333    20498332.530    20498335.869          12.250  
 12  1  1  0 12  0.0000000  0  9G 1G 2G 5G 9G12G18G21G28G29
   1709290.136     1331912.402    21683883.187    21683887.809          12.250  
   1709274.256     1331901.047    21683849.338    21683853.225          12.000  
  -2311654.607    -1801287.798    23460716.850    23460722.532          11.500  
   2345619.200     1827751.885    23331102.476    23331109.349          11.500  
   2131771.205     1661117.523    22935671.803    22935676.881          12.000  
  -1206848.716     -940401.422    21708530.630    21708533.778          12.500  
   -711013.453     -554036.972    21238199.270    21238203.167          12.500  
   -796883.015     -620949.274    25324051.823    25324057.417          11.250  
   -714032.924     -556390.062    20493706.740    20493709.631          12.500  
 12  1  1  0 12 30.0000000  0  9G 1G 2G 5G 9G12G18G21G28G29
   1783220.621     1389520.498    21697951.762    21697956.236          12.500  
   1783204.175     1389508.693    21697917.619    21697921.506          12.000  
  -2405300.330    -1874258.451    23442896.294    23442902.519          11.500  
   2445211.277     1905355.938    23350054.849    23350060.752          11.500  
   2221619.052     1731128.695    22952769.598    22952774.792          11.500  
  -1256001.443     -978702.244    21699176.901    21699180.111          12.500  
   -733633.993     -571663.371    21233894.586    21233898.551          12.750  
   -824850.581     -642742.241    25318729.331    25318736.051          11.250  
   -737855.015     -574952.745    20489173.771    20489176.443          12.500  
 12  1  1  0 13  0.0000000  0  9G 1G 2G 5G 9G12G18G21G28G29
   1857349.635     1447283.269    21712058.115    21712062.408          12.000  
   1857332.580     1447271.006    21712023.752    21712027.905          12.000  
  -2498721.833    -1947054.371    23425118.567    23425125.086          11.500  
   2544921.598     1983052.128    23369029.516    23369035.087          11.250  
   2311536.006     1801193.708    22969880.070    22969885.638          11.750  
  -1305059.458    -1016929.277    21689841.309    21689844.807          12.500  
   -755682.824     -588844.288    21229699.032    21229702.642          12.250  
   -852394.392     -664205.042    25313488.141    25313493.605          10.750  
   -761187.719     -593134.120    20484733.947    20484736.644          12.750  
 12  1  1  0 13 30.0000000  0  9G 1G 2G 5G 9G12G18G21G28G29
   1931675.060     1505199.108    21726201.897    21726206.180          12.250  
   1931657.439     1505186.374    21726167.898    21726171.969          12.000  
  -2591918.015    -2019674.706    23407383.706    23407390.019          11.750  
   2644746.671     2060837.729    23388025.587    23388032.509          11.250  
   2401520.619     1871311.460    22987003.221    22987009.644          11.500  
  -1354022.287    -1055082.117    21680523.692    21680527.408          12.250  
   -777158.810     -605578.809    21225612.041    21225615.390          12.500  
   -879513.937     -685337.208    25308326.104    25308333.204          10.000  
   -784029.437     -610932.875    20480387.095    20480390.078          12.500  
 12  1  1  0 14  0.0000000  0  9G 1G 2G 5G 9G12G18G21G28G29
   2006194.860     1563266.397    21740382.339    21740386.714          12.250  
   2006176.634     1563253.211    21740348.379    21740352.293          12.000  
  -2684887.735    -2092118.592    23389691.944    23389697.600          11.750  
   2744683.064     2138710.025    23407042.978    23407049.605          11.250  
   2491571.543     1941480.869    23004139.282    23004146.088          11.750  
  -1402889.344    -1093160.347    21671224.617    21671228.342          12.250  
   -798060.815     -621866.106    21221634.397    21221638.246          12.250  
   -906208.838     -706138.490    25303245.994    25303253.443          10.250  
   -806378.537     -628347.771    20476134.043    20476137.142          12.750  
 12  1  1  0 14 30.0000000  0  9G 1G 2G 5G 9G12G18G21G28G29
   2080906.938     1621483.533    21754599.826    21754604.195          12.250  
   2080888.146     1621469.873    21754565.465    21754569.602          12.000  
  -2777629.862    -2164385.113    23372043.947    23372049.108          11.750  
   2844727.236     2216666.362    23426080.485    23426087.553          10.750  
   2581687.296     2011700.798    23021288.049    23021294.173          12.000  
  -1451660.103    -1131163.547    21661944.141    21661947.882          12.500  
   -818387.774     -637705.305    21217766.511    21217770.100          12.250  
   -932478.649     -726608.548    25298246.511    25298254.126          10.750  
   -828233.415     -645377.562    20471975.288    20471978.209          12.750  
 12  1  1  0 15  0.0000000  0  9G 1G 2G 5G 9G12G18G21G28G29
   2155809.249     1679848.896    21768853.168    21768857.747          12.250  
   2155789.892     1679834.798    21768818.611    21768823.015          12.250  
  -2870143.263    -2236473.425    23354439.293    23354444.498          11.500  
   2944875.726     2294703.995    23445137.550    23445145.311          10.750  
   2671866.524     2081970.203    23038448.479    23038455.149          11.500  
  -1500334.038    -1169091.310    21652681.437    21652685.469          12.500  
   -838138.583     -653095.567    21214007.917    21214011.714          12.250  
   -958323.011     -746747.026    25293329.307    25293336.809          10.750  
   -849592.481     -662021.005    20467910.855    20467913.859          12.750  
 12  1  1  0 15 30.0000000  0  9G 1G 2G 5G 9G12G18G21G28G29
   2230899.745     1738360.880    21783142.502    21783147.219          12.250  
   2230879.816     1738346.357    21783107.892    21783112.227          12.250  
  -2962426.791    -2308382.665    23336878.436    23336884.165          11.250  
   3045125.200     2372820.269    23464214.827    23464222.180          11.250  
   2762107.837     2152287.986    23055621.081    23055627.618          11.500  
  -1548910.609    -1206943.188    21643437.743    21643441.578          12.250  
   -857312.268     -668036.113    21210359.593    21210363.462          12.500  
   -983741.515     -766553.738    25288493.760    25288499.289          10.500  
   -870454.157     -678276.872    20463941.040    20463943.872          12.500  
 12  1  1  0 16  0.0000000  0  9G 1G 2G 5G 9G12G18G21G28G29
   2306176.394     1797017.931    21797467.093    21797471.824          12.250  
   2306155.924     1797002.952    21797432.672    21797436.626          12.250  
  -3054479.456    -2380111.948    23319361.860    23319366.620          11.750  
   3145472.042     2451012.446    23483310.459    23483317.450          10.750  
   2852409.887     2222653.085    23072805.406    23072811.916          11.500  
  -1597389.247    -1244718.727    21634213.050    21634216.265          12.250  
   -875907.773     -682526.129    21206820.840    21206824.532          12.750  
  -1008733.814     -786028.291    25283737.724    25283744.004          10.500  
   -890816.900     -694143.960    20460066.299    20460068.789          12.500  
 12  1  1  0 16 30.0000000  0  9G 1G 2G 5G 9G12G18G21G28G29
   2381637.135     1855818.419    21811827.068    21811831.631          12.250  
   2381616.099     1855803.010    21811792.281    21811796.422          12.250  
  -3146300.089    -2451660.420    23301888.814    23301894.410          11.000  
   3245912.875     2529277.872    23502423.787    23502430.695          11.250  
   2942771.282     2293064.404    23090000.451    23090006.592          11.500  
  -1645769.371    -1282417.517    21625006.222    21625009.700          12.500  
   -893924.111     -696564.832    21203392.151    21203396.038          12.750  
  -1033299.605     -805170.487    25279063.723    25279069.403          10.500  
   -910679.157     -709621.076    20456286.666    20456289.221          12.500  
 12  1  1  0 17  0.0000000  0  9G 1G 2G 5G 9G12G18G21G28G29
   2457279.947     1914760.780    21826221.848    21826226.113          12.000  
   2457258.367     1914744.944    21826186.559    21826190.964          12.250  
  -3237887.573    -2523027.241    23284460.219    23284465.741          11.000  
   3346444.240     2607613.832    23521554.628    23521561.768          11.500  
   3033190.695     2363520.932    23107207.140    23107212.980          11.250  
  -1694050.409    -1320039.110    21615818.802    21615821.915          12.500  
   -911360.310     -710151.487    21200074.233    21200078.168          12.500  
  -1057438.481     -823980.037    25274470.170    25274475.538          11.000  
   -930039.446     -724707.023    20452602.353    20452605.399          12.250  
 12  1  1  0 17 30.0000000  0  9G 1G 2G 5G 9G12G18G21G28G29
   2533102.795     1973843.428    21840650.583    21840654.868          12.000  
   2533080.664     1973827.183    21840615.300    21840619.754          12.000  
  -3329240.845    -2594211.567    23267076.276    23267081.717          11.250  
   3447062.699     2686017.651    23540701.971    23540708.964          11.250  
   3123666.698     2434021.606    23124424.136    23124429.942          11.250  
  -1742231.749    -1357583.011    21606649.949    21606653.567          12.500  
   -928215.434     -723285.367    21196866.979    21196870.695          12.500  
  -1081150.129     -842456.755    25269958.053    25269963.794          10.500  
   -948896.229     -739400.641    20449013.839    20449017.001          12.250  
 12  1  1  0 18  0.0000000  0  9G 1G 2G 5G 9G12G18G21G28G29
   2609103.670     2033064.812    21855112.758    21855117.482          12.000  
   2609080.982     2033048.129    21855077.563    21855082.058          12.000  
  -3420358.844    -2665212.544    23249737.212    23249742.643          11.500  
   3547764.815     2764486.663    23559865.325    23559872.500          11.250  
   3214198.039     2504565.361    23141651.315    23141657.474          11.250  
  -1790312.848    -1395048.812    21597500.370    21597504.057          12.500  
   -944488.574     -735965.763    21193770.320    21193774.007          12.500  
  -1104434.347     -860600.312    25265526.653    25265534.706          10.250  
   -967248.033     -753700.757    20445521.785    20445524.724          12.500  
 12  1  1  0 18 30.0000000  0  9G 1G 2G 5G 9G12G18G21G28G29
   2685280.544     2092423.335    21869608.763    21869613.434          12.000  
   2685257.319     2092406.231    21869573.462    21869577.655          12.000  
  -3511240.479    -2736029.358    23232442.817    23232447.897          11.500  
   3648547.216     2843018.205    23579043.511    23579051.200          10.750  
   3304783.305     2575151.167    23158889.816    23158895.273          11.500  
  -1838293.098    -1432436.017    21588370.390    21588373.645          12.500  
   -960178.841     -748191.941    21190784.635    21190788.361          12.500  
  -1127290.802     -878410.519    25261177.731    25261183.703          10.250  
   -985093.381     -767606.245    20442125.932    20442128.968          12.500  
 12  1  1  0 19  0.0000000  0  9G 1G 2G 5G 9G12G18G21G28G29
   2761631.434     2151917.448    21884138.000    21884142.376          12.000  
   2761607.662     2151899.915    21884102.345    21884107.088          12.000  
  -3601884.713    -2806661.176    23215193.973    23215198.731          11.500  
   3749406.424     2921609.630    23598236.859    23598243.890          11.000  
   3395421.251     2645777.987    23176137.910    23176143.507          11.250  
  -1886171.882    -1469744.165    21579259.382    21579262.511          12.500  
   -975285.360     -759963.265    21187910.032    21187913.899          12.500  
  -1149719.160     -895887.279    25256910.599    25256915.994           9.500  
  -1002430.834     -781115.965    20438826.853    20438829.663          12.500  
 12  1  1  0 19 30.0000000  0  9G 1G 2G 5G 9G12G18G21G28G29
   2838154.318     2211545.564    21898700.297    21898704.158          12.000  
   2838130.027     2211527.637    21898664.526    21898668.900          12.000  
  -3692290.497    -2877107.182    23197990.131    23197994.877          11.500  
   3850339.042     3000258.208    23617444.029    23617450.500          11.000  
   3486110.538     2716444.837    23193395.649    23193401.593          11.500  
  -1933948.584    -1506972.762    21570167.949    21570171.038          12.250  
   -989807.316     -771279.093    21185146.880    21185150.390          12.250  
  -1171719.327     -913030.324    25252723.331    25252729.357          10.750  
  -1019258.960     -794228.801    20435624.587    20435627.170          12.500  
 12  1  1  0 20  0.0000000  0  9G 1G 2G 5G 9G12G18G21G28G29
   2914847.200     2271306.174    21913294.555    21913298.564          12.000  
   2914822.386     2271287.814    21913258.806    21913263.145          12.000  
  -3782456.772    -2947366.539    23180831.873    23180836.753          11.500  
   3951341.640     3078961.352    23636663.409    23636670.903          11.000  
   3576849.857     2787150.666    23210662.545    23210668.660          11.750  
  -1981622.601    -1544121.347    21561095.652    21561099.339          12.500  
  -1003743.892     -782138.767    21182494.505    21182498.645          12.500  
  -1193291.087     -929839.483    25248618.118    25248625.289          10.250  
  -1035576.287     -806943.645    20432519.444    20432522.214          12.500  
 12  1  1  0 20 30.0000000  0  9G 1G 2G 5G 9G12G18G21G28G29
   2991708.114     2331197.701    21927920.778    21927924.901          12.000  
   2991682.772     2331178.922    21927884.859    21927889.311          12.250  
  -3872382.519    -3017438.484    23163719.216    23163724.645          11.250  
   4052410.794     3157716.371    23655896.819    23655904.491          11.250  
   3667637.942     2857894.467    23227938.799    23227945.353          12.250  
  -2029193.288    -1581189.428    21552043.095    21552046.740          12.500  
  -1017094.287     -792541.670    21179953.697    21179957.814          12.250  
  -1214434.115     -946314.589    25244594.802    25244602.604          10.500  
  -1051381.496     -819259.400    20429511.986    20429514.498          12.500  
 12  1  1  0 21  0.0000000  0  9G 1G 2G 5G 9G12G18G21G28G29
   3068735.078     2391218.627    21942578.416    21942582.686          12.000  
   3068709.193     2391199.446    21942542.604    21942547.100          12.250  
  -3962066.606    -3087322.182    23146652.606    23146658.226          11.250  
   4153543.205     3236520.654    23675141.162    23675148.886          11.250  
   3758473.482     2928675.243    23245224.222    23245231.047          12.000  
  -2076660.023    -1618176.491    21543010.506    21543014.084          12.500  
  -1029857.752     -802487.252    21177524.856    21177529.052          12.250  
  -1235148.273     -962455.548    25240652.518    25240659.569          10.250  
  -1066673.166     -831175.015    20426601.994    20426604.715          12.500  
 12  1  1  0 21 30.0000000  0  9G 1G 2G 5G 9G12G18G21G28G29
   3145926.105     2451367.374    21957267.604    21957272.054          12.000  
   3145899.706     2451347.813    21957231.382    21957235.909          12.000  
  -4051508.192    -3157016.866    23129632.269    23129638.085          11.250  
   4254735.334     3315371.516    23694398.329    23694405.857          11.250  
   3849355.154     2999492.009    23262519.262    23262525.317          11.500  
  -2124022.157    -1655082.044    21533997.733    21534001.443          12.250  
  -1042033.557     -811974.911    21175207.932    21175211.963          12.500  
  -1255433.436     -978262.224    25236792.721    25236798.800          10.250  
  -1081449.946     -842689.403    20423789.879    20423793.026          12.750  
 12  1  1  0 22  0.0000000  0  9G 1G 2G 5G 9G12G18G21G28G29
   3223279.226     2511642.456    21971987.202    21971991.610          12.000  
   3223252.338     2511622.488    21971951.168    21971955.406          12.000  
  -4140706.114    -3226521.709    23112658.896    23112664.307          11.000  
   4355983.915     3394266.327    23713665.394    23713672.557          11.000  
   3940281.764     3070343.756    23279822.556    23279828.576          11.500  
  -2171279.010    -1691905.575    21525005.082    21525008.687          12.250  
  -1053620.979     -821004.095    21173003.182    21173006.957          12.500  
  -1275289.382     -993734.498    25233014.312    25233020.641          10.750  
  -1095710.468     -853801.525    20421076.257    20421079.394          12.500  
 12  1  1  0 22 30.0000000  0  9G 1G 2G 5G 9G12G18G21G28G29
   3300792.502     2572042.319    21986737.827    21986742.016          12.250  
   3300765.107     2572021.953    21986700.972    21986705.765          12.000  
  -4229659.475    -3295835.946    23095731.761    23095736.880          11.750  
   4457285.585     3473202.477    23732943.129    23732949.953          10.750  
   4031252.001     3141229.528    23297133.404    23297139.285          11.000  
  -2218429.947    -1728646.564    21516032.641    21516036.297          12.250  
  -1064619.362     -829574.271    21170910.408    21170914.007          12.500  
  -1294716.055    -1008872.217    25229317.544    25229324.488          11.000  
  -1109453.438     -864510.352    20418461.149    20418464.118          12.750  
 12  1  1  0 23  0.0000000  0  9G 1G 2G 5G 9G12G18G21G28G29
   3378464.000     2632565.462    22001518.121    22001522.930          12.000  
   3378436.099     2632544.698    22001481.499    22001486.156          12.000  
  -4318367.228    -3364958.802    23078851.147    23078856.056          11.750  
   4558636.899     3552177.353    23752229.196    23752236.636          11.500  
   4122264.651     3212148.309    23314452.343    23314458.535          11.000  
  -2265474.317    -1765304.500    21507080.327    21507083.865          12.500  
  -1075028.026     -837684.943    21168929.618    21168933.370          12.000  
  -1313713.351    -1023675.319    25225702.293    25225708.412          10.750  
  -1122677.526     -874814.862    20415944.577    20415947.506          12.250  
 12  1  1  0 23 30.0000000  0  9G 1G 2G 5G 9G12G18G21G28G29
   3456291.752     2693210.352    22016328.215    22016332.650          12.000  
   3456263.321     2693189.210    22016291.781    22016296.185          12.000  
  -4406828.377    -3433889.482    23062017.373    23062022.766          11.750  
   4660034.534     3631188.289    23771524.545    23771532.293          11.250  
   4213318.442     3283099.188    23331779.616    23331785.807          11.500  
  -2312411.414    -1801878.863    21498148.685    21498151.871          12.500  
  -1084846.346     -845335.607    21167061.399    21167064.940          12.250  
  -1332281.140    -1038143.767    25222169.473    25222175.201          10.750  
  -1135381.456     -884714.053    20413527.131    20413530.091          12.500  
 12  1  1  0 24  0.0000000  0  9G 1G 2G 5G 9G12G18G21G28G29
   3534273.796     2753975.492    22031168.008    22031171.960          12.000  
   3534244.887     2753953.972    22031131.343    22031135.803          12.000  
  -4495041.912    -3502627.295    23045231.022    23045235.902          11.250  
   4761475.104     3710232.700    23790827.922    23790836.120          11.000  
   4304412.187     3354081.195    23349114.241    23349120.375          11.500  
  -2359240.561    -1838369.115    21489237.671    21489240.515          12.250  
  -1094073.747     -852525.772    21165305.917    21165308.918          12.250  
  -1350419.329    -1052277.399    25218717.878    25218723.362          10.250  
  -1147563.951     -894206.925    20411208.754    20411212.089          12.500  
 12  1  1  0 24 30.0000000  0  9G 1G 2G 5G 9G12G18G21G28G29
   3612408.243     2814859.380    22046036.290    22046040.332          12.000  
   3612378.838     2814837.481    22045999.796    22046004.076          12.000  
  -4583006.907    -3571171.401    23028491.722    23028497.047          11.500  
   4862955.317     3789307.989    23810139.324    23810147.448          11.250  
   4395544.634     3425093.297    23366456.351    23366462.462          11.500  
  -2405961.074    -1874774.695    21480346.873    21480350.002          12.250  
  -1102709.628     -859255.041    21163662.300    21163665.561          12.500  
  -1368127.860    -1066076.338    25215347.069    25215354.256          10.250  
  -1159223.775     -903292.508    20408990.232    20408993.234          12.250  
 12  1  1  0 25  0.0000000  0  9G 1G 2G 5G 9G12G18G21G28G29
   3690693.160     2875860.523    22060933.618    22060937.588          12.000  
   3690663.275     2875838.209    22060896.931    22060900.958          12.250  
  -4670722.414    -3639521.096    23011799.564    23011805.043          11.250  
   4964471.729     3868411.545    23829457.475    23829465.695          11.000  
   4486714.543     3496134.668    23383804.976    23383811.978          11.500  
  -2452572.259    -1911095.102    21471477.171    21471480.344          12.250  
  -1110753.419     -865522.944    21162131.860    21162135.024          12.500  
  -1385406.750    -1079540.490    25212060.474    25212066.755          10.500  
  -1170359.672     -911969.854    20406871.049    20406873.958          12.750  
 12  1  1  0 25 30.0000000  0  9G 1G 2G 5G 9G12G18G21G28G29
   3769126.602     2936977.411    22075859.018    22075863.358          12.250  
   3769096.241     2936954.730    22075822.149    22075826.462          12.250  
  -4758187.423    -3707675.612    22995155.536    22995161.635          11.250  
   5066021.108     3947540.752    23848782.214    23848790.241          11.250  
   4577920.726     3567204.275    23401160.833    23401168.025          12.000  
  -2499073.392    -1947329.748    21462627.927    21462631.280          12.250  
  -1118204.602     -871329.086    21160713.799    21160717.276          12.500  
  -1402255.830    -1092669.735    25208854.086    25208860.536          10.500  
  -1180970.455     -920238.012    20404851.800    20404854.969          12.500  
 12  1  1  0 26  0.0000000  0  9G 1G 2G 5G 9G12G18G21G28G29
   3847706.717     2998208.554    22090812.244    22090816.981          12.250  
   3847675.899     2998185.521    22090775.588    22090780.297          12.250  
  -4845401.016    -3775634.203    22978559.650    22978565.455          11.750  
   5167600.103     4026692.997    23868111.966    23868119.842          10.750  
   4669162.000     3638301.226    23418524.138    23418530.708          11.500  
  -2545463.763    -1983478.114    21453799.780    21453803.736          12.250  
  -1125062.719     -876673.064    21159408.726    21159412.256          12.500  
  -1418675.324    -1105464.169    25205729.297    25205736.773          10.750  
  -1191054.921     -928096.043    20402933.162    20402935.962          12.500  
 12  1  1  0 26 30.0000000  0  9G 1G 2G 5G 9G12G18G21G28G29
   3926431.585     3059552.532    22105793.164    22105798.000          12.500  
   3926400.267     3059529.111    22105756.381    22105761.107          12.000  
  -4932362.245    -3843396.153    22962011.513    22962017.008          11.250  
   5269205.374     4105865.764    23887447.250    23887454.621          10.500  
   4760437.168     3709424.598    23435893.585    23435899.897          11.750  
  -2591742.696    -2019539.590    21444993.012    21444997.314          12.250  
  -1131327.252     -881554.535    21158216.325    21158220.399          12.500  
  -1434665.131    -1117923.755    25202687.431    25202693.194          11.000  
  -1200611.886     -935543.046    20401114.496    20401117.515          12.500  
 12  1  1  0 27  0.0000000  0  9G 1G 2G 5G 9G12G18G21G28G29
   4005299.297     3121007.797    22120801.457    22120805.940          12.250  
   4005267.504     3120984.004    22120764.597    22120768.818          12.250  
  -5019070.218    -3910960.726    22945511.089    22945516.723          11.250  
   5370833.607     4185056.386    23906786.081    23906793.635          11.250  
   4851745.037     3780573.423    23453269.281    23453275.009          11.750  
  -2637909.407    -2055513.637    21436208.023    21436212.197          12.250  
  -1136997.770     -885973.147    21157137.661    21157141.220          12.500  
  -1450225.314    -1130048.603    25199725.909    25199731.734          10.750  
  -1209640.190     -942578.124    20399396.282    20399399.517          12.750  
 12  1  1  0 27 30.0000000  0  9G 1G 2G 5G 9G12G18G21G28G29
   4084307.987     3182572.902    22135836.272    22135840.835          12.250  
   4084275.731     3182548.767    22135799.265    22135803.867          12.250  
  -5105523.920    -3978327.203    22929059.731    22929065.001          11.500  
   5472481.520     4264262.327    23926129.701    23926136.988          11.000  
   4943084.485     3851746.858    23470650.636    23470656.615          11.250  
  -2683963.164    -2091399.689    21427444.579    21427448.348          12.250  
  -1142073.866     -889928.568    21156171.575    21156175.318          12.500  
  -1465355.853    -1141838.691    25196846.703    25196853.837          11.000  
  -1218138.728     -949200.387    20397778.795    20397782.160          12.500  
 12  1  1  0 28  0.0000000  0  9G 1G 2G 5G 9G12G18G21G28G29
   4163455.774     3244246.400    22150897.443    22150902.613          12.250  
   4163423.067     3244221.904    22150860.803    22150864.916          12.250  
  -5191722.496    -4045494.900    22912656.775    22912662.140          11.500  
   5574145.783     4343481.072    23945475.531    23945483.578          11.250  
   5034454.253     3922943.934    23488037.472    23488043.956          11.500  
  -2729903.233    -2127197.160    21418702.605    21418706.041          12.000  
  -1146555.125     -893420.479    21155318.785    21155322.365          12.500  
  -1480056.818    -1153294.075    25194049.839    25194056.004          10.750  
  -1226106.375     -955408.968    20396262.802    20396265.905          12.750  
 12  1  1  0 28 30.0000000  0  9G 1G 2G 5G 9G12G18G21G28G29
   4242740.803     3306026.835    22165985.018    22165990.373          12.000  
   4242707.624     3306001.991    22165948.356    22165952.822          12.250  
  -5277665.027    -4112463.049    22896302.172    22896308.108          12.000  
   5675823.127     4422709.989    23964824.313    23964831.874          11.000  
   5125853.315     3994163.828    23505430.206    23505436.749          11.250  
  -2775728.857    -2162905.444    21409982.488    21409985.573          12.250  
  -1150441.191     -896448.610    21154579.154    21154582.832          12.250  
  -1494328.404    -1164414.852    25191333.787    25191339.862          11.000  
  -1233542.038     -961203.027    20394847.847    20394851.147          13.000  
 12  1  1  0 29  0.0000000  0  9G 1G 2G 5G 9G12G18G21G28G29
   4322161.210     3367912.772    22181098.594    22181103.687          12.000  
   4322127.547     3367887.568    22181061.389    22181065.851          12.250  
  -5363350.604    -4179230.990    22879996.783    22880002.496          11.750  
   5777510.297     4501946.518    23984174.516    23984182.498          11.250  
   5217280.447     4065405.606    23522828.120    23522835.413          11.500  
  -2821439.308    -2198523.971    21401284.024    21401287.143          12.000  
  -1153731.756     -899012.698    21153953.173    21153956.719          12.250  
  -1508170.696    -1175201.055    25188698.961    25188705.254          11.250  
  -1240444.652     -966581.702    20393534.329    20393537.431          12.750  
 12  1  1  0 29 30.0000000  0  9G 1G 2G 5G 9G12G18G21G28G29
   4401715.112     3429902.736    22196237.403    22196242.405          12.250  
   4401681.031     3429877.169    22196200.087    22196204.368          12.250  
  -5448778.376    -4245798.039    22863741.019    22863745.997          11.250  
   5879203.993     4581188.166    24003526.892    24003534.522          10.750  
   5308734.520     4136668.376    23540231.590    23540238.756          11.750  
  -2867033.754    -2234052.124    21392607.717    21392610.877          12.250  
  -1156426.455     -901112.486    21153440.262    21153443.961          12.250  
  -1521583.741    -1185652.878    25186146.377    25186153.070          10.750  
  -1246813.155     -971544.179    20392322.498    20392325.814          12.750  
 12  1  1  0 30  0.0000000  0  9G 1G 2G 5G 9G12G18G21G28G29
   4481400.723     3491995.305    22211401.072    22211405.805          12.250  
   4481366.160     3491969.401    22211363.540    22211368.017          12.250  
  -5533947.418    -4312163.483    22847533.750    22847538.708          11.500  
   5980900.958     4660432.356    24022879.225    24022887.342          10.500  
   5400214.414     4207951.240    23557639.141    23557646.952          11.250  
  -2912511.477    -2269489.298    21383953.364    21383956.654          12.250  
  -1158525.016     -902747.754    21153040.490    21153044.619          12.500  
  -1534567.644    -1195770.295    25183676.175    25183682.819          10.750  
  -1252646.522     -976089.683    20391212.520    20391215.739          12.750  
 12  1  1  0 30 30.0000000  0  9G 1G 2G 5G 9G12G18G21G28G29
   4561216.142     3554189.043    22226589.630    22226594.167          12.250  
   4561181.190     3554162.803    22226551.693    22226556.684          12.250  
  -5618856.856    -4378326.652    22831375.776    22831380.629          11.250  
   6082597.952     4739676.549    24042230.962    24042239.828          10.250  
   5491719.011     4279253.386    23575052.215    23575059.775          11.250  
  -2957871.661    -2304834.905    21375321.763    21375324.765          12.250  
  -1160027.185     -903918.311    21152754.690    21152758.792          12.250  
  -1547122.735    -1205553.480    25181288.059    25181293.186          11.000  
  -1257943.719     -980217.380    20390204.457    20390207.934          12.500  
 12  1  1  0 31  0.0000000  0  9G 1G 2G 5G 9G12G18G21G28G29
   4641159.589     3616482.545    22241802.497    22241807.093          12.250  
   4641124.206     3616455.957    22241764.076    22241768.943          12.250  
  -5703505.845    -4444286.851    22815267.148    22815272.320          11.000  
   6184291.665     4818918.207    24061583.158    24061591.402          10.250  
   5583247.223     4350573.902    23592469.937    23592477.025          11.500  
  -3003113.534    -2340088.316    21366712.438    21366715.772          12.500  
  -1160932.753     -904623.938    21152582.462    21152586.433          12.250  
  -1559249.093    -1215002.660    25178979.739    25178985.951          11.250  
  -1262703.772     -983926.542    20389298.945    20389302.142          12.750  
 12  1  1  0 31 30.0000000  0  9G 1G 2G 5G 9G12G18G21G28G29
   4721229.228     3678874.367    22257038.985    22257043.700          12.500  
   4721193.420     3678847.444    22257001.227    22257005.639          12.250  
  -5787893.545    -4510043.421    22799208.921    22799214.128          11.250  
   6285978.938     4898154.825    24080933.931    24080942.695          10.750  
   5674797.921     4421911.898    23609891.514    23609899.440          11.250  
  -3048236.297    -2375248.908    21358125.575    21358129.129          12.500  
  -1161241.461     -904864.530    21152523.999    21152527.949          12.000  
  -1570946.913    -1224117.926    25176753.191    25176760.849          11.000  
  -1266925.704     -987216.386    20388495.485    20388498.673          12.750  
 12  1  1  0 32  0.0000000  0  9G 1G 2G 5G 9G12G18G21G28G29
   4801423.267     3741363.108    22272299.860    22272304.279          12.250  
   4801387.019     3741335.867    22272261.454    22272265.987          12.500  
  -5872019.032    -4575595.707    22783199.967    22783205.370          11.750  
   6387656.462     4977383.886    24100282.487    24100290.321          11.250  
   5766369.970     4493266.624    23627317.682    23627323.968          11.250  
  -3093239.136    -2410316.047    21349562.007    21349565.412          12.750  
  -1160953.160     -904639.906    21152578.870    21152582.631          12.250  
  -1582216.427    -1232899.374    25174608.389    25174614.710          10.750  
  -1270608.580     -990086.186    20387794.817    20387797.757          12.750  
 12  1  1  0 32 30.0000000  0  9G 1G 2G 5G 9G12G18G21G28G29
   4881739.883     3803947.385    22287583.661    22287588.658          12.000  
   4881703.207     3803919.821    22287545.310    22287550.312          12.250  
  -5955881.507    -4640943.074    22767241.575    22767246.807          11.750  
   6489321.095     5056602.851    24119629.218    24119636.328          11.500  
   5857962.375     4564637.162    23644746.358    23644753.754          11.000  
  -3138121.222    -2445289.112    21341021.546    21341024.547          12.500  
  -1160067.714     -903949.949    21152747.719    21152750.849          12.250  
  -1593057.900    -1241347.291    25172545.722    25172552.208          11.000  
  -1273751.457     -992535.208    20387196.884    20387199.755          12.500  
 12  1  1  0 33  0.0000000  0  9G 1G 2G 5G 9G12G18G21G28G29
   4962177.274     3866625.774    22302890.132    22302895.422          12.000  
   4962140.158     3866597.884    22302852.440    22302856.862          12.250  
  -6039480.158    -4706084.827    22751333.530    22751338.213          11.500  
   6590969.575     5135809.271    24138971.873    24138980.617          11.000  
   5949574.041     4636022.683    23662180.457    23662186.872          11.250  
  -3182881.733    -2480167.448    21332503.912    21332507.065          12.500  
  -1158584.962     -902794.566    21153029.632    21153033.374          12.500  
  -1603471.559    -1249461.881    25170564.915    25170571.796          10.750  
  -1276353.438     -994562.753    20386701.577    20386704.626          12.750  
 12  1  1  0 33 30.0000000  0  9G 1G 2G 5G 9G12G18G21G28G29
   5042733.675     3929396.885    22318219.541    22318224.990          12.250  
   5042696.144     3929368.658    22318181.725    22318186.354          12.000  
  -6122814.125    -4771020.351    22735475.767    22735480.849          11.500  
   6692598.718     5215000.572    24158311.873    24158319.664          10.750  
   6041203.879     4707422.388    23679617.092    23679623.901          11.250  
  -3227519.877    -2514950.407    21324009.591    21324012.855          12.500  
  -1156504.788     -901173.688    21153425.439    21153429.086          12.250  
  -1613457.645    -1257243.310    25168664.251    25168671.066          11.000  
  -1278413.646     -996168.148    20386309.563    20386312.471          12.500  
 12  1  1  0 34  0.0000000  0  9G 1G 2G 5G 9G12G18G21G28G29
   5123407.285     3992259.343    22333571.303    22333576.568          12.250  
   5123369.358     3992230.776    22333533.254    22333538.060          12.000  
  -6205882.651    -4835749.023    22719667.623    22719673.350          11.750  
   6794205.311     5294174.357    24177646.977    24177654.790          11.000  
   6132850.801     4778835.431    23697056.791    23697063.517          11.000  
  -3272034.794    -2549637.350    21315538.486    21315542.299          12.500  
  -1153827.164     -899087.247    21153935.239    21153938.788          12.500  
  -1623016.425    -1264691.803    25166845.497    25166851.699          10.250  
  -1279931.207     -997350.680    20386020.554    20386023.737          12.500  
 12  1  1  0 34 30.0000000  0  9G 1G 2G 5G 9G12G18G21G28G29
   5204196.368     4055211.758    22348944.904    22348950.466          12.250  
   5204158.032     4055182.886    22348906.842    22348911.619          12.000  
  -6288684.837    -4900270.164    22703911.264    22703916.473          11.750  
   6895786.173     5373328.040    24196977.110    24196985.010          11.000  
   6224513.850     4850260.999    23714499.883    23714507.208          11.250  
  -3316425.632    -2584227.622    21307091.113    21307094.744          12.250  
  -1150552.020     -896535.191    21154558.132    21154562.043          12.500  
  -1632148.214    -1271807.603    25165108.651    25165114.731          11.000  
  -1280905.280     -998109.711    20385834.971    20385838.550          12.500  
 12  1  1  0 35  0.0000000  0  9G 1G 2G 5G 9G12G18G21G28G29
   5285099.124     4118252.753    22364340.332    22364345.784          12.250  
   5285060.390     4118223.569    22364302.330    22364307.185          12.000  
  -6371219.956    -4964583.205    22688205.225    22688210.848          11.250  
   6997338.098     5452459.204    24216301.560    24216310.493          10.750  
   6316191.855     4921698.278    23731945.299    23731952.787          11.500  
  -3360691.552    -2618720.543    21298667.325    21298671.244          12.250  
  -1146679.295     -893517.525    21155295.153    21155299.585          12.500  
  -1640853.447    -1278590.940    25163450.848    25163458.653          11.000  
  -1281335.051     -998444.619    20385753.460    20385756.589          12.750  
 12  1  1  0 35 30.0000000  0  9G 1G 2G 5G 9G12G18G21G28G29
   5366113.828     4181381.000    22379757.267    22379761.923          12.000  
   5366074.684     4181351.481    22379719.388    22379723.805          12.000  
  -6453487.195    -5028687.485    22672550.055    22672555.501          11.750  
   7098857.956     5531565.378    24235620.675    24235629.431          10.750  
   6407883.912     4993146.474    23749393.319    23749401.211          11.250  
  -3404831.692    -2653115.457    21290267.841    21290271.658          12.250  
  -1142209.052     -890034.253    21156146.096    21156150.243          12.500  
  -1649132.474    -1285042.141    25161875.871    25161883.529          11.500  
  -1281219.702     -998354.760    20385775.596    20385778.626          12.500  
 12  1  1  0 36  0.0000000  0 10G 1G 2G 5G 9G11G12G18G21G28G29
   5447238.693     4244595.074    22395194.805    22395200.104          12.000  
   5447199.173     4244565.264    22395156.456    22395161.449          12.000  
  -6535485.776    -5092582.457    22656946.410    22656951.743          12.000  
   7200342.587     5610644.117    24254932.829    24254941.113          10.750  
         0.447           0.234    25198611.040    25198619.475          11.250  
   6499588.932     5064604.756    23766844.919    23766852.248          11.250  
  -3448845.182    -2687411.686    21281891.941    21281895.927          12.250  
  -1137141.283     -886085.371    21157110.461    21157114.273          12.500  
  -1656985.482    -1291161.466    25160382.349    25160388.975          11.000  
  -1280558.474     -997839.537    20385901.557    20385904.455          12.500  
 12  1  1  0 36 30.0000000  0 10G 1G 2G 5G 9G11G12G18G21G28G29
   5528472.077     4307893.688    22410652.955    22410658.224          11.750  
   5528432.130     4307863.567    22410614.272    22410619.662          12.000  
  -6617214.915    -5156267.438    22641393.768    22641399.098          12.000  
   7301788.859     5689692.912    24274238.219    24274246.262          11.250  
   -117061.703      -91216.841    25176334.484    25176342.749           9.500  
   6591305.908     5136072.366    23784298.543    23784306.349          11.500  
  -3492731.146    -2721608.530    21273540.739    21273544.594          12.500  
  -1131476.085     -881670.947    21158188.343    21158192.441          12.000  
  -1664412.987    -1296949.185    25158967.994    25158975.165          11.250  
  -1279350.629     -996898.379    20386131.402    20386134.451          12.750  
 12  1  1  0 37  0.0000000  0 10G 1G 2G 5G 9G11G12G18G21G28G29
   5609812.171     4371275.455    22426131.193    22426136.789          12.000  
   5609771.856     4371245.039    22426093.027    22426098.750          11.750  
  -6698673.851    -5219741.901    22625892.357    22625898.286          12.250  
   7403193.541     5768709.350    24293533.906    24293542.856          11.250  
   -234206.828     -182498.660    25154041.597    25154051.691           9.750  
   6683033.825     5207548.512    23801753.767    23801762.258          10.750  
  -3536488.706    -2755705.328    21265214.257    21265217.654          12.250  
  -1125213.494     -876791.040    21159379.865    21159384.505          12.250  
  -1671415.403    -1302405.588    25157636.004    25157642.381          11.500  
  -1277595.400     -995530.679    20386465.311    20386468.174          12.750  
 12  1  1  0 37 30.0000000  0 10G 1G 2G 5G 9G11G12G18G21G28G29
   5691257.254     4434739.040    22441629.924    22441635.522          11.750  
   5691216.557     4434708.344    22441591.700    22441597.009          11.750  
  -6779861.814    -5283005.219    22610442.820    22610448.699          12.250  
   7504553.576     5847691.025    24312823.364    24312831.909          11.250  
   -351432.679     -273843.216    25131736.491    25131742.764          10.250  
   6774771.735     5279032.414    23819210.835    23819219.072          10.750  
  -3580116.954    -2789701.377    21256912.320    21256915.896          12.250  
  -1118353.662     -871445.733    21160685.449    21160689.532          12.250  
  -1677993.135    -1307531.146    25156383.012    25156390.668          11.000  
  -1275292.058     -993735.918    20386903.830    20386906.711          12.750  
 12  1  1  0 38  0.0000000  0 10G 1G 2G 5G 9G11G12G18G21G28G29
   5772805.664     4498283.161    22457148.465    22457153.627          11.750  
   5772764.581     4498252.127    22457109.692    22457115.171          12.000  
  -6860778.111    -5346056.817    22595044.892    22595050.510          12.000  
   7605865.834     5926635.443    24332103.227    24332111.337          11.500  
   -468736.646     -365248.836    25109413.131    25109421.438          10.500  
   6866518.577     5350523.317    23836670.023    23836677.554          10.750  
  -3623614.985    -2823595.969    21248634.885    21248638.279          12.000  
  -1110896.675     -865635.128    21162104.421    21162108.306          12.250  
  -1684146.424    -1312326.043    25155211.583    25155219.570          10.750  
  -1272439.980     -991513.554    20387446.536    20387449.341          12.500  
 12  1  1  0 38 30.0000000  0 10G 1G 2G 5G 9G11G12G18G21G28G29
   5854455.656     4561906.441    22472686.081    22472691.148          11.750  
   5854414.220     4561875.109    22472647.088    22472652.411          12.000  
  -6941421.920    -5408896.102    22579699.327    22579704.370          11.750  
   7707127.242     6005540.196    24351372.662    24351381.069          10.750  
   -586116.576     -456713.434    25087075.510    25087085.439          10.000  
   6958273.427     5422020.414    23854130.740    23854138.980          11.250  
  -3666981.948    -2857388.402    21240382.522    21240385.709          12.250  
  -1102842.749     -859359.369    21163637.116    21163641.026          12.250  
  -1689875.994    -1316790.655    25154121.964    25154129.295          11.000  
  -1269038.472     -988863.035    20388093.634    20388096.744          12.500  
 12  1  1  0 39  0.0000000  0 10G 1G 2G 5G 9G11G12G18G21G28G29
   5936205.579     4625607.563    22488242.607    22488247.767          12.000  
   5936163.757     4625575.954    22488203.751    22488208.664          12.000  
  -7021792.563    -5471522.521    22564404.885    22564409.708          11.500  
   7808334.620     6084402.899    24370631.818    24370638.637          11.000  
   -703569.598     -548235.224    25064725.242    25064734.135           9.250  
   7050035.275     5493522.992    23871592.395    23871600.931          10.750  
  -3710216.891    -2891077.966    21232155.229    21232158.856          12.500  
  -1094192.056     -852618.582    21165283.041    21165287.126          12.250  
  -1695182.160    -1320925.417    25153112.944    25153119.124          10.750  
  -1265086.876     -985783.889    20388845.731    20388848.759          12.500  
 12  1  1  0 39 30.0000000  0 10G 1G 2G 5G 9G11G12G18G21G28G29
   6018053.725     4689385.230    22503817.853    22503823.445          11.750  
   6018011.544     4689353.328    22503779.215    22503783.848          11.750  
  -7101889.295    -5533935.554    22549163.208    22549168.059          11.750  
   7909484.922     6163221.057    24389880.571    24389888.563          10.250  
   -821093.581     -639812.187    25042360.977    25042369.905          10.250  
   7141803.196     5565030.294    23889055.325    23889063.300          11.000  
  -3753318.909    -2924663.944    21223953.052    21223957.006          12.500  
  -1084944.782     -845412.939    21167042.674    21167046.709          12.250  
  -1700065.525    -1324730.638    25152184.196    25152190.026          10.750  
  -1260584.574     -982275.638    20389702.480    20389705.489          12.500  
 12  1  1  0 40  0.0000000  0 10G 1G 2G 5G 9G11G12G18G21G28G29
   6099998.449     4753238.123    22519411.605    22519416.878          11.750  
   6099955.881     4753205.953    22519372.615    22519377.606          11.750  
  -7181711.416    -5596134.589    22533973.580    22533978.615          12.000  
   8010575.009     6241992.336    24409116.624    24409124.175          10.500  
   -938685.864     -731442.387    25019981.964    25019992.800          10.750  
   7233576.209     5636541.541    23906519.644    23906527.777          11.000  
  -3796287.047    -2958145.607    21215776.376    21215780.363          12.250  
  -1075101.186     -837742.651    21168916.020    21168920.070          12.500  
  -1704526.517    -1328206.778    25151335.673    25151340.953          10.500  
  -1255530.981     -978337.807    20390664.162    20390667.280          12.500  
 12  1  1  0 40 30.0000000  0 10G 1G 2G 5G 9G11G12G18G21G28G29
   6182038.045     4817164.963    22535023.531    22535028.337          11.750  
   6181995.113     4817132.505    22534983.930    22534989.578          11.500  
  -7261258.233    -5658119.058    22518836.319    22518841.398          12.000  
   8111601.899     6320714.336    24428341.412    24428349.415          10.500  
  -1056343.934     -823123.883    24997593.293    24997601.990          11.000  
   7325353.385     5708056.037    23923984.211    23923992.238          11.250  
  -3839120.401    -2991522.227    21207625.693    21207629.296          12.250  
  -1064661.541     -829607.888    21170902.652    21170906.524          12.500  
  -1708565.659    -1331354.222    25150566.975    25150572.940          10.500  
  -1249925.528     -973969.942    20391730.989    20391733.947          12.500  
 12  1  1  0 41  0.0000000  0 10G 1G 2G 5G 9G11G12G18G21G28G29
   6264170.877     4881164.450    22550652.932    22550657.963          11.750  
   6264127.595     4881131.727    22550613.495    22550618.693          11.500  
  -7340529.014    -5719888.456    22503751.581    22503756.328          12.000  
   8212562.417     6399384.656    24447554.450    24447561.842          10.250  
  -1174065.513     -914854.742    24975191.686    24975199.257          10.750  
   7417133.719     5779573.040    23941450.135    23941457.857          10.750  
  -3881817.999    -3024793.101    21199500.751    21199503.884          12.500  
  -1053626.111     -821008.893    21173003.097    21173006.608          12.750  
  -1712183.466    -1334173.379    25149877.756    25149884.783          10.500  
  -1243767.653     -969171.627    20392902.819    20392905.829          12.750  
 12  1  1  0 41 30.0000000  0 10G 1G 2G 5G 9G11G12G18G21G28G29
   6346395.280     4945235.303    22566299.724    22566304.507          11.750  
   6346351.647     4945202.293    22566260.467    22566265.635          11.750  
  -7419523.096    -5781442.249    22488719.271    22488724.350          12.000  
   8313453.598     6478000.901    24466752.283    24466760.912          10.000  
  -1291847.957    -1006633.140    24952779.472    24952787.081          10.750  
   7508916.410     5851091.854    23958915.183    23958923.773          11.000  
  -3924378.911    -3057957.463    21191401.765    21191405.036          12.500  
  -1041995.261     -811945.921    21175216.692    21175220.313          12.500  
  -1715380.539    -1336664.686    25149268.708    25149276.194          10.500  
  -1237056.812     -963942.437    20394179.691    20394182.873          13.000  
 12  1  1  0 42  0.0000000  0 10G 1G 2G 5G 9G11G12G18G21G28G29
   6428709.616     5009376.243    22581963.548    22581968.577          12.000  
   6428665.629     5009342.951    22581924.112    22581929.694          12.000  
  -7498239.817    -5842779.904    22473739.814    22473745.132          11.750  
   8414272.330     6556560.740    24485938.497    24485946.358          10.250  
  -1409688.736    -1098456.966    24930352.957    24930363.202          10.250  
   7600700.398     5922611.650    23976380.499    23976389.422          11.500  
  -3966802.175    -3091014.557    21183328.438    21183332.091          12.500  
  -1029769.325     -802419.234    21177543.189    21177546.426          12.500  
  -1718157.518    -1338828.621    25148741.315    25148748.386          11.000  
  -1229792.522     -958281.973    20395561.794    20395565.225          13.000  
 12  1  1  0 42 30.0000000  0 10G 1G 2G 5G 9G11G12G18G21G28G29
   6511112.291     5073586.003    22597644.598    22597649.575          12.000  
   6511067.961     5073552.452    22597604.844    22597610.412          12.000  
  -7576678.482    -5903900.888    22458813.596    22458818.994          11.750  
   8515015.661     6635061.809    24505109.328    24505117.918          10.750  
  -1527585.407    -1190324.387    24907918.663    24907930.079          10.750  
   7692484.865     5994131.811    23993847.089    23993855.438          11.000  
  -4009086.836    -3123963.655    21175282.243    21175285.611          12.500  
  -1016948.637     -792429.126    21179982.647    21179986.183          12.250  
  -1720514.984    -1340665.606    25148292.472    25148299.371          11.250  
  -1221974.284     -952189.871    20397049.767    20397052.788          12.750  
 12  1  1  0 43  0.0000000  0 10G 1G 2G 5G 9G11G12G18G21G28G29
   6593601.657     5137863.312    22613342.107    22613346.551          11.750  
   6593556.979     5137829.484    22613302.363    22613307.907          12.000  
  -7654838.405    -5964804.703    22443940.196    22443945.653          11.750  
   8615680.392     6713501.786    24524265.499    24524273.645          10.250  
  -1645535.401    -1282233.322    24885472.230    24885483.423          11.250  
   7784268.875     6065651.631    24011314.023    24011321.828          10.750  
  -4051231.933    -3156803.978    21167262.288    21167265.696          12.500  
  -1003533.635     -781975.896    21182535.281    21182539.313          12.250  
  -1722453.464    -1342176.161    25147923.206    25147931.163          10.750  
  -1213601.654     -945665.763    20398643.214    20398646.148          12.750  
 12  1  1  0 43 30.0000000  0 10G 1G 2G 5G 9G11G12G18G21G28G29
   6676176.100     5202206.913    22629055.387    22629060.530          12.000  
   6676131.099     5202172.836    22629015.599    22629021.209          11.750  
  -7732718.969    -6025490.805    22429120.365    22429125.387          12.000  
   8716263.790     6791878.172    24543405.399    24543413.985          10.000  
  -1763536.211    -1374181.907    24863017.384    24863028.564          10.500  
   7876051.529     6137170.425    24028780.416    24028787.636          11.000  
  -4093236.430    -3189534.756    21159268.958    21159272.818          12.750  
   -989524.708     -771059.879    21185201.080    21185205.020          12.750  
  -1723973.563    -1343360.800    25147633.624    25147642.101          11.000  
  -1204674.190     -938709.329    20400341.961    20400344.960          12.750  
 12  1  1  0 44  0.0000000  0 10G 1G 2G 5G 9G11G12G18G21G28G29
   6758834.027     5266615.578    22644784.897    22644789.809          11.750  
   6758788.697     5266581.234    22644745.070    22644750.541          11.750  
  -7810319.524    -6085958.720    22414353.386    22414358.378          12.000  
   8816762.730     6870188.742    24562529.374    24562538.488          10.250  
  -1881585.274    -1466168.002    24840555.005    24840563.481          10.250  
   7967831.929     6208687.451    24046245.213    24046252.793          11.000  
  -4135099.395    -3222155.265    21151302.629    21151306.690          12.750  
   -974922.301     -759681.426    21187979.820    21187984.222          12.500  
  -1725076.110    -1344219.992    25147424.227    25147431.591          10.750  
  -1195191.465     -931320.212    20402146.412    20402149.800          12.500  
 12  1  1  0 44 30.0000000  0 10G 1G 2G 5G 9G11G12G18G21G28G29
   6841573.857     5331088.035    22660529.460    22660534.886          11.750  
   6841528.153     5331053.443    22660489.855    22660495.488          11.750  
  -7887639.410    -6146207.958    22399639.444    22399644.882          11.750  
   8917174.037     6948431.112    24581637.201    24581647.472          10.500  
  -1999680.005    -1558189.7741   24818081.564    24818090.729          10.750  
   8059609.156     6280202.004    24063709.916    24063717.091          11.250  
  -4176819.817    -3254664.681    21143363.520    21143367.541          12.750  
   -959726.920     -747840.889    21190871.509    21190875.752          12.250  
  -1725761.713    -1344754.285    25147294.317    25147300.772          10.750  
  -1185153.094     -923498.145    20404056.740    20404059.955          12.500  
 12  1  1  0 45  0.0000000  0 10G 1G 2G 5G 9G11G12G18G21G28G29
   6924393.960     5395623.061    22676289.531    22676295.210          12.000  
   6924347.959     5395588.232    22676249.757    22676255.522          11.750  
  -7964678.048    -6206238.031    22384979.455    22384984.682          11.750  
   9017494.949     7026603.039    24600728.189    24600738.188          10.750  
  -2117818.028    -1650245.102    24795600.600    24795609.758          10.500  
   8151382.383     6351713.439    24081174.224    24081181.276          10.750  
  -4218396.705    -3287062.253    21135451.469    21135455.376          12.500  
   -943939.045     -735538.689    21193875.949    21193879.903          12.750  
  -1726031.043    -1344964.159    25147243.641    25147248.883          11.000  
  -1174558.714     -915242.816    20406072.749    20406075.814          12.750  
 12  1  1  0 45 30.0000000  0 10G 1G 2G 5G 9G11G12G18G21G28G29
   7007292.789     5460219.435    22692064.884    22692070.587          11.750  
   7007246.457     5460184.347    22692025.212    22692030.643          11.500  
  -8041434.763    -6266048.384    22370373.431    22370378.518          12.000  
   9117722.468     7104702.102    24619800.539    24619812.327          10.250  
  -2235996.579    -1742332.191    24773111.538    24773121.896          10.500  
   8243150.777     6423221.111    24098637.177    24098645.156          11.000  
  -4259829.046    -3319347.211    21127567.273    21127570.989          12.750  
   -927559.187     -722775.210    21196992.823    21196996.898          12.500  
  -1725884.738    -1344850.269    25147272.257    25147276.831          10.250  
  -1163407.976     -906553.959    20408194.624    20408197.925          12.750  
 12  1  1  0 46  0.0000000  0 10G 1G 2G 5G 9G11G12G18G21G28G29
   7090268.786     5524875.943    22707854.929    22707860.653          11.750  
   7090222.150     5524840.596    22707814.722    22707820.621          11.750  
  -8117908.975    -6325638.653    22355820.660    22355826.125          12.000  
   9217853.558     7182726.118    24638853.703    24638866.395          10.250  
  -2354213.186    -1834448.892    24750615.980    24750624.789          10.250  
   8334913.486     6494724.332    24116099.082    24116106.248          11.000  
  -4301115.821    -3351518.730    21119710.776    21119714.329          12.750  
   -910587.922     -709550.867    21200222.249    21200225.836          12.250  
  -1725323.581    -1344413.032    25147379.046    25147384.268          10.250  
  -1151700.575     -897431.343    20410422.592    20410425.787          12.750  
 12  1  1  0 46 30.0000000  0 10G 1G 2G 5G 9G11G12G18G21G28G29
   7173320.415     5589591.361    22723659.443    22723664.564          12.000  
   7173273.438     5589555.744    22723619.117    22723624.891          11.750  
  -8194100.062    -6385008.303    22341322.357    22341327.081          12.000  
   9317885.231     7260672.661    24657890.672    24657901.711          10.500  
  -2472465.238    -1926593.227    24728113.435    24728122.577          10.500  
   8426669.593     6566222.396    24133559.793    24133567.609          10.750  
  -4342256.001    -3383575.993    21111881.869    21111885.531          12.750  
   -893025.812     -695866.147    21203564.183    21203568.030          12.500  
  -1724348.315    -1343653.089    25147564.011    25147570.169          10.750  
  -1139436.221     -887874.717    20412756.607    20412759.690          12.750  
 12  1  1  0 47  0.0000000  0 10G 1G 2G 5G 9G11G12G18G21G28G29
   7256446.041     5654364.468    22739477.460    22739483.287          12.000  
   7256398.798     5654328.625    22739437.820    22739443.485          12.000  
  -8270007.448    -6444156.890    22326877.373    22326882.167          12.000  
   9417814.676     7338539.594    24676907.736    24676918.342          10.250  
  -2590750.183    -2018763.215    24705603.000    24705613.112          10.500  
   8518418.254     6637714.697    24151019.347    24151027.749          10.750  
  -4383248.565    -3415518.243    21104081.182    21104084.759          12.750  
   -874873.469     -681721.479    21207018.355    21207022.478          12.250  
  -1722959.709    -1342571.135    25147827.121    25147834.451          10.750  
  -1126614.617     -877883.890    20415196.218    20415199.967          12.750  
 12  1  1  0 47 30.0000000  0 10G 1G 2G 5G 9G11G12G18G21G28G29
   7339644.234     5719194.098    22755309.573    22755315.424          12.000  
   7339596.670     5719158.001    22755269.753    22755275.335          11.500  
  -8345630.578    -6503083.959    22312486.894    22312491.497          11.750  
   9517638.837     7416324.465    24695903.335    24695914.123          10.250  
  -2709065.445    -2110956.806    24683087.470    24683098.754          10.750  
   8610158.733     6709200.589    24168476.599    24168485.413          10.500  
  -4424092.472    -3447344.665    21096309.150    21096312.644          12.750  
   -856131.488     -667117.362    21210584.726    21210589.245          12.250  
  -1721158.481    -1341167.672    25148170.595    25148177.471          11.250  
  -1113235.515     -867458.654    20417742.222    20417745.952          13.000  
 12  1  1  0 48  0.0000000  0 10G 1G 2G 5G 9G11G12G18G21G28G29
   7422913.394     5784079.049    22771155.070    22771160.797          12.000  
   7422865.521     5784042.704    22771115.237    22771121.433          12.000  
  -8420968.822    -6561789.039    22298150.368    22298155.280          11.750  
   9617354.918     7494025.071    24714878.055    24714889.409          11.000  
  -2827408.503    -2203171.979    24660567.836    24660579.271          10.250  
   8701890.108     6780679.391    24185931.963    24185940.523          10.250  
  -4464786.690    -3479054.459    21088565.301    21088568.720          12.750  
   -836800.526     -652054.312    21214263.517    21214267.659          12.250  
  -1718945.527    -1339443.333    25148592.500    25148599.009          10.750  
  -1099298.696     -856598.836    20420394.204    20420397.719          13.000  
 12  1  1  0 48 30.0000000  0 10G 1G 2G 5G 9G11G12G18G21G28G29
   7506252.027     5849018.111    22787014.271    22787019.721          12.000  
   7506203.847     5848981.519    22786974.038    22786979.880          11.750  
  -8496021.632    -6620271.727    22283868.512    22283872.874          11.500  
   9716959.938     7571639.203    24733833.405    24733844.074          10.000  
  -2945776.616    -2295406.751    24638043.739    24638054.213          10.500  
   8793611.597     6852150.521    24203385.950    24203395.027          10.500  
  -4505330.142    -3510646.778    21080850.028    21080853.604          13.000  
   -816881.275     -636532.853    21218054.188    21218058.312          12.500  
  -1716321.559    -1337398.716    25149092.856    25149097.396          11.000  
  -1084803.975     -845304.262    20423152.772    20423155.759          13.000  
 12  1  1  0 49  0.0000000  0 10G 1G 2G 5G 9G11G12G18G21G28G29
   7589658.614     5914010.106    22802886.210    22802891.573          12.000  
   7589610.125     5913973.314    22802845.455    22802851.695          11.500  
  -8570788.481    -6678531.577    22269640.421    22269645.282          11.750  
   9816451.087     7649164.561    24752767.026    24752776.569          10.500  
  -3064167.361    -2387659.066    24615514.533    24615524.647          10.250  
   8885322.411     6923613.278    24220838.099    24220847.782          10.750  
  -4545721.795    -3542120.790    21073164.117    21073167.212          12.750  
   -796374.444     -620553.536    21221956.926    21221960.509          12.750  
  -1713287.462    -1335034.524    25149668.864    25149674.784          11.250  
  -1069751.143     -833574.817    20426017.368    20426020.224          12.750  
 12  1  1  0 49 30.0000000  0 10G 1G 2G 5G 9G11G12G18G21G28G29
   7673131.643     5979053.899    22818770.643    22818776.381          11.750  
   7673082.864     5979016.880    22818730.306    22818736.248          11.500  
  -8645268.780    -6736568.132    22255467.309    22255472.340          12.000  
   9915825.506     7726598.891    24771677.104    24771686.357          11.000  
  -3182577.965    -2479926.994    24592981.572    24592991.315          10.250  
   8977021.714     6995067.098    24238288.016    24238297.367          11.250  
  -4585960.595    -3573475.691    21065506.650    21065509.865          13.000  
   -775280.718     -604116.918    21225970.748    21225974.707          12.750  
  -1709844.064    -1332351.417    25150323.354    25150329.835          11.000  
  -1054140.066     -821410.369    20428988.267    20428991.016          12.750  
 12  1  1  0 50  0.0000000  0 10G 1G 2G 5G 9G11G12G18G21G28G29
   7756669.620     6044148.305    22834667.680    22834673.473          11.750  
   7756620.580     6044111.073    22834626.833    22834632.878          11.250  
  -8719462.007    -6794380.990    22241348.594    22241353.681          11.500  
  10015080.174     7803939.925    24790566.336    24790574.573          10.750  
  -3301005.880    -2572208.316    24570445.878    24570456.683          10.750  
   9068708.751     7066511.346    24255735.208    24255744.781          10.750  
  -4626045.448    -3604710.639    21057878.714    21057881.891          12.750  
   -753600.867     -587223.568    21230096.000    21230100.167          12.750  
  -1705992.202    -1329350.053    25151055.652    25151063.527          11.000  
  -1037970.613     -808810.833    20432065.165    20432067.910          12.750  
 12  1  1  0 50 30.0000000  0 10G 1G 2G 5G 9G11G12G18G21G28G29
   7840271.106     6109292.189    22850576.065    22850582.189          11.750  
   7840221.777     6109254.720    22850535.933    22850541.895          11.500  
  -8793367.622    -6851969.734    22227284.844    22227289.950          11.750  
  10114212.242     7881185.454    24809429.975    24809440.146          10.500  
  -3419448.522    -2664501.094    24547907.769    24547917.138          10.500  
   9160382.702     7137945.435    24273180.562    24273189.308          10.250  
  -4665975.277    -3635824.810    21050280.511    21050283.659          12.750  
   -731335.666     -569874.096    21234333.113    21234337.242          12.500  
  -1701732.828    -1326031.158    25151866.050    25151873.666          10.500  
  -1021242.678     -795776.103    20435248.096    20435251.543          12.500  
 12  1  1  0 51  0.0000000  0 10G 1G 2G 5G 9G11G12G18G21G28G29
   7923934.566     6174484.389    22866496.535    22866503.313          11.750  
   7923884.968     6174446.692    22866456.612    22866462.751          11.500  
  -8866985.111    -6909333.983    22213276.103    22213280.873          11.750  
  10213218.948     7958333.319    24828269.979    24828281.252           8.750  
  -3537903.202    -2756803.305    24525366.015    24525375.489          10.750  
   9252042.818     7209368.703    24290623.327    24290632.620          10.750  
  -4705749.007    -3666817.324    21042711.778    21042715.178          12.500  
   -708485.934     -552069.139    21238681.674    21238685.386          12.500  
  -1697066.796    -1322395.365    25152754.745    25152762.411          10.500  
  -1003956.188     -782306.145    20438537.897    20438540.990          12.750  
 12  1  1  0 51 30.0000000  0 10G 1G 2G 5G 9G11G12G18G21G28G29
   8007658.588     6239723.739    22882428.562    22882435.488          11.500  
   8007608.708     6239685.864    22882389.305    22882394.541          12.000  
  -8940313.926    -6966473.290    22199322.212    22199326.547          11.750  
  10312097.414     8035381.228    24847087.110    24847096.368           9.500  
  -3656367.311    -2849112.846    24502823.214    24502833.267          10.750  
   9343688.302     7280780.580    24308063.913    24308072.500          11.000  
  -4745365.533    -3697687.357    21035172.820    21035176.483          12.750  
   -685052.473     -533809.331    21243140.751    21243145.095          12.250  
  -1691995.065    -1318443.419    25153719.837    25153727.321          11.250  
   -986111.069     -768400.888    20441933.541    20441936.842          12.750  
 12  1  1  0 52  0.0000000  0 10G 1G 2G 5G 9G11G12G18G21G28G29
   8091441.701     6305009.145    22898371.807    22898379.254          11.500  
   8091391.525     6304971.060    22898332.466    22898338.383          12.250  
  -9013353.627    -7023387.305    22185423.208    22185427.638          12.000  
  10410844.763     8112327.018    24865880.757    24865887.220          10.250  
  -3774838.221    -2941427.713    24480278.476    24480287.529          11.500  
   9435318.401     7352180.460    24325501.297    24325509.393          11.000  
  -4784823.767    -3728434.036    21027664.291    21027667.742          12.750  
   -661036.115     -515095.314    21247710.989    21247714.902          12.500  
  -1686518.474    -1314176.017    25154762.610    25154769.925          11.250  
   -967707.307     -754060.328    20445435.710    20445439.109          12.750  
 12  1  1  0 52 30.0000000  0 10G 1G 2G 5G 9G11G12G18G21G28G29
   8175282.443     6370339.475    22914326.888    22914333.290          11.750  
   8175231.987     6370301.146    22914286.778    22914292.451          12.000  
  -9086103.668    -7080075.605    22171579.112    22171583.566          12.000  
  10509458.344     8189168.412    24884641.817    24884651.746          10.750  
  -3893313.290    -3033745.852    24457733.331    24457743.054          11.500  
   9526932.403     7423567.834    24342934.727    24342943.307          11.000  
  -4824122.607    -3759056.491    21020185.787    21020189.450          13.000  
   -636437.737     -495927.799    21252391.916    21252396.171          12.250  
  -1680638.053    -1309593.896    25155881.458    25155888.254          11.000  
   -948744.859     -739284.431    20449044.337    20449047.272          12.750  
 12  1  1  0 53  0.0000000  0 10G 1G 2G 5G 9G11G12G18G21G28G29
   8259179.381     6435713.560    22930292.324    22930298.519          12.000  
   8259128.645     6435675.034    22930251.727    22930257.630          11.750  
  -9158563.556    -7136537.815    22157790.591    22157794.880          12.000  
  10607935.239     8265903.425    24903382.598    24903391.100          11.000  
  -4011789.836    -3126065.140    24435187.719    24435197.696          11.500  
   9618529.541     7494941.986    24360364.579    24360373.309          11.000  
  -4863260.930    -3789553.904    21012738.321    21012741.686          13.000  
   -611258.252     -476307.455    21257183.494    21257187.376          12.250  
  -1674354.700    -1304697.829    25157076.344    25157084.350          10.750  
   -929223.773     -724073.236    20452759.081    20452762.207          12.750  
 12  1  1  0 53 30.0000000  0 10G 1G 2G 5G 9G11G12G18G21G28G29
   8343131.096     6501130.355    22946267.802    22946273.894          12.250  
   8343080.112     6501091.630    22946227.914    22946233.534          11.500  
  -9230732.823    -7192773.597    22144057.166    22144061.558          12.250  
  10706272.714     8342529.731    24922094.561    24922104.212          10.250  
  -4130265.311    -3218383.493    24412642.186    24412651.996          11.500  
   9710109.058     7566302.458    24377791.870    24377799.847          10.750  
  -4902237.629    -3819925.349    21005320.864    21005324.827          12.750  
   -585498.564     -456235.031    21262085.282    21262089.303          12.250  
  -1667669.438    -1299488.658    25158349.253    25158356.685          10.750  
   -909144.061     -708426.744    20456580.180    20456583.191          12.750  
 12  1  1  0 54  0.0000000  0  9G 1G 2G 5G11G12G18G21G28G29
   8427136.172     6566588.715    22962253.637    22962259.516          11.750  
   8427084.913     6566549.762    22962213.787    22962219.512          12.000  
  -9302611.008    -7248782.523    22130379.161    22130383.495          12.000  
  -4248736.961    -3310698.919    24390098.403    24390107.258          11.250  
   9801670.126     7637648.631    24395215.871    24395223.934          11.250  
  -4941051.569    -3850169.979    20997934.666    20997938.650          12.750  
   -559159.623     -435711.217    21267097.326    21267101.511          12.250  
  -1660583.349    -1293967.044    25159697.171    25159705.142          10.750  
   -888505.817     -692345.019    20460507.553    20460510.495          12.750  
 12  1  1  0 54 30.0000000  0  9G 1G 2G 5G11G12G18G21G28G29
   8511193.187     6632087.573    22978249.926    22978255.204          11.250  
   8511141.665     6632048.410    22978209.269    22978215.004          11.750  
  -9374197.634    -7304564.292    22116756.756    22116761.434          12.250  
  -4367202.167    -3403009.344    24367554.373    24367563.901          11.250  
   9893212.223     7708979.930    24412635.581    24412643.801          11.000  
  -4979701.611    -3880286.900    20990580.029    20990583.750          12.750  
   -532242.400     -414736.802    21272219.899    21272223.630          12.250  
  -1653097.360    -1288133.923    25161122.269    25161130.391          10.750  
   -867309.117     -675828.142    20464540.808    20464544.052          12.750  
 12  1  1  0 55  0.0000000  0  9G 1G 2G 5G11G12G18G21G28G29
   8595300.773     6697625.822    22994255.172    22994260.558          11.750  
   8595249.012     6697586.463    22994214.449    22994220.217          11.750  
  -9445492.263    -7360118.496    22103189.725    22103194.553          12.250  
  -4485658.246    -3495312.643    24345013.588    24345021.301          10.750  
   9984734.551     7780295.808    24430051.718    24430060.481          11.000  
  -5018186.639    -3910275.237    20983256.592    20983259.967          12.750  
   -504747.871     -393312.543    21277451.781    21277455.871          12.250  
  -1645212.539    -1281989.969    25162622.020    25162630.883          10.750  
   -845554.074     -658876.189    20468680.852    20468684.308          12.500  
 12  1  1  0 55 30.0000000  0  9G 1G 2G 5G11G12G18G21G28G29
   8679457.504     6763202.365    23010269.330    23010275.472          12.000  
   8679405.508     6763162.815    23010228.806    23010234.665          12.000  
  -9516494.437    -7415444.832    22089678.445    22089683.267          12.500  
  -4604102.546    -3587606.742    24322473.599    24322483.037          11.000  
  10076236.295     7851595.727    24447463.985    24447473.420          10.250  
  -5056505.510    -3940134.082    20975964.882    20975968.067          13.000  
   -476677.073     -371439.234    21282793.609    21282797.666          12.750  
  -1636929.940    -1275536.044    25164198.820    25164206.806          10.750  
   -823240.813     -641489.261    20472926.989    20472930.635          12.750  
 12  1  1  0 56  0.0000000  0  9G 1G 2G 5G11G12G18G21G28G29
   8763662.025     6828816.136    23026292.898    23026299.442          12.000  
   8763609.762     6828776.368    23026252.484    23026258.048          12.250  
  -9587203.712    -7470542.945    22076222.512    22076227.729          12.250  
  -4722532.366    -3679889.560    24299937.412    24299946.192          11.000  
  10167716.985     7922879.119    24464872.192    24464882.256          10.500  
  -5094657.037    -3969862.567    20968704.703    20968708.411          12.750  
   -448031.023     -349117.674    21288244.691    21288248.468          12.500  
  -1628250.552    -1268773.015    25165851.142    25165858.688          10.000  
   -800369.488     -623667.497    20477279.379    20477282.930          12.750  
 12  1  1  0 56 30.0000000  0  9G 1G 2G 5G11G12G18G21G28G29
   8847912.961     6894466.083    23042325.763    23042331.666          11.500  
   8847860.474     6894426.125    23042284.666    23042290.556          11.750  
  -9657619.684    -7525412.499    22062822.921    22062827.898          12.250  
  -4840945.039    -3772159.025    24277404.731    24277412.896          11.000  
  10259175.642     7994145.484    24482276.837    24482286.278          10.500  
  -5132640.089    -3999459.750    20961476.886    20961480.629          12.500  
   -418810.791     -326348.689    21293804.971    21293809.036          12.500  
  -1619175.578    -1261701.651    25167577.822    25167585.368          10.000  
   -776940.303     -605411.029    20481737.804    20481741.275          12.750  
 12  1  1  0 57  0.0000000  0  9G 1G 2G 5G11G12G18G21G28G29
   8932208.974     6960151.100    23058366.803    23058372.834          11.500  
   8932156.196     6960110.983    23058325.913    23058331.466          11.250  
  -9727741.921    -7580053.173    22049479.134    22049484.087          12.250  
  -4959337.881    -3864413.019    24254875.168    24254882.985          11.000  
  10350611.780     8065394.198    24499677.215    24499686.009          10.750  
  -5170453.509    -4028924.749    20954281.298    20954284.971          12.500  
   -389017.444     -303133.147    21299474.546    21299478.739          12.250  
  -1609706.106    -1254322.861    25169379.712    25169386.362           9.500  
   -752953.451     -586720.006    20486302.122    20486305.565          12.500  
 12  1  1  0 57 30.0000000  0  9G 1G 2G 5G11G12G18G21G28G29
   9016548.640     7025870.213    23074415.972    23074422.351          11.750  
   9016495.639     7025829.911    23074375.460    23074381.268          11.500  
  -9797569.996    -7634464.603    22036190.888    22036195.826          12.000  
  -5077708.153    -3956649.491    24232350.016    24232358.882          11.500  
  10442024.721     8136624.858    24517072.339    24517081.559          10.750  
  -5208096.110    -4058256.647    20947118.346    20947121.828          12.500  
   -358652.090     -279471.884    21305252.733    21305256.963          12.250  
  -1599843.172    -1246637.544    25171257.219    25171263.648          10.000  
   -728409.177     -567594.631    20490972.792    20490976.012          12.500  
 12  1  1  0 58  0.0000000  0 10G 1G 2G 5G10G11G12G18G21G28G29
   9100930.686     7091622.312    23090473.509    23090479.612          11.750  
   9100877.455     7091581.801    23090432.825    23090438.500          12.000  
  -9867103.510    -7688646.545    22022959.467    22022964.159          12.250  
         0.260           0.068    24798903.188    24798909.636           9.750  
  -5196053.263    -4048866.289    24209829.411    24209838.173          11.750  
  10533413.717     8207836.807    24534462.927    24534472.295          11.250  
  -5245566.715    -4087454.521    20939987.895    20939991.340          12.500  
   -327715.877     -255365.796    21311139.779    21311144.105          12.250  
  -1589587.951    -1238646.545    25173207.817    25173216.171           9.500  
   -703307.732     -548035.112    20495749.575    20495752.885          12.500  
 12  1  1  0 58 30.0000000  0 10G 1G 2G 5G10G11G12G18G21G28G29
   9185353.763     7157406.375    23106538.650    23106544.783          11.500  
   9185300.295     7157365.692    23106498.166    23106503.523          11.750  
  -9936342.109    -7742598.660    22009783.585    22009788.254          12.000  
     -7455.276       -5809.509    24797480.531    24797489.738          10.000  
  -5314370.398    -4141061.317    24187313.902    24187323.149          11.500  
  10624778.159     8279029.669    24551848.980    24551857.598          11.000  
  -5282864.134    -4116517.469    20932890.272    20932893.479          12.500  
   -296209.963     -230815.776    21317135.167    21317139.566          12.500  
  -1578941.583    -1230350.783    25175234.455    25175242.420           9.750  
   -677649.400     -528041.643    20500632.371    20500635.675          12.500  
 12  1  1  0 59  0.0000000  0 10G 1G 2G 5G10G11G12G18G21G28G29
   9269816.526     7223221.378    23122611.352    23122617.565          11.750  
   9269762.800     7223180.526    23122570.394    23122576.948          12.250  
 -10005285.366    -7796320.651    21996663.824    21996669.071          12.250  
    -14340.637      -11174.796    24796172.857    24796180.041           9.750  
  -5432656.873    -4233232.465    24164804.845    24164813.811          11.000  
  10716117.363     8350202.902    24569230.797    24569240.262          11.000  
  -5319987.215    -4145444.561    20925825.977    20925829.442          12.250  
   -264135.490     -205822.737    21323239.060    21323243.106          12.500  
  -1567905.349    -1221751.190    25177334.154    25177342.233           9.750  
   -651434.483     -507614.469    20505620.923    20505624.257          12.250  
 12  1  1  0 59 30.0000000  0 10G 1G 2G 5G10G11G12G18G21G28G29
   9354317.671     7289066.297    23138692.150    23138698.234          11.250  
   9354263.733     7289025.272    23138650.633    23138656.370          11.750  
 -10073932.895    -7849812.208    21983600.226    21983605.814          12.000  
    -20656.272      -16096.235    24794970.700    24794980.674          10.500  
  -5550910.031    -4325377.691    24142301.716    24142310.735          11.000  
  10807430.602     8421355.925    24586607.282    24586616.650          11.250  
  -5356934.729    -4174234.841    20918795.121    20918798.649          12.500  
   -231493.678     -180387.597    21329450.644    21329455.115          12.250  
  -1556480.375    -1212848.614    25179507.617    25179516.471          10.250  
   -624663.317     -486753.856    20510715.244    20510718.792          12.250  
 12  1  1  1  0  0.0000000  0 10G 1G 2G 5G10G11G12G18G21G28G29
   9438856.014     7354940.192    23154779.114    23154785.274          11.500  
   9438801.868     7354899.008    23154737.611    23154743.751          11.750  
 -10142284.825    -7903073.410    21970593.736    21970599.106          12.250  
    -26386.018      -20560.867    24793881.735    24793890.607          10.500  
  -5669126.668    -4417494.367    24119805.560    24119815.025          11.000  
  10898705.962     8492479.320    24603974.693    24603985.445          11.000  
  -5393704.945    -4202886.946    20911798.156    20911801.726          12.500  
   -198285.378     -154511.030    21335769.969    21335774.557          12.750  
  -1544667.144    -1203643.535    25181757.721    25181764.946          10.750  
   -597335.553     -465459.544    20515915.595    20515918.955          12.500  
 12  1  1  1  0 30.0000000  0 10G 1G 2G 5G10G11G12G18G21G28G29
   9523429.971     7420841.860    23170873.484    23170879.433          11.750  
   9523375.629     7420800.509    23170831.235    23170838.483          11.750  
 -10210339.852    -7956103.299    21957643.402    21957648.696          12.000  
    -31563.607      -24595.493    24792897.564    24792905.176          10.750  
  -5787305.041    -4509581.279    24097316.802    24097326.451          11.000  
  10989965.501     8563590.383    24621342.107    24621352.673          10.500  
  -5430297.735    -4231400.820    20904834.439    20904838.513          12.500  
   -164512.541     -128194.570    21342196.860    21342201.252          12.500  
  -1532468.109    -1194137.973    25184079.884    25184086.078          11.500  
   -569452.985     -443732.906    20521221.436    20521225.099          12.500  
 12  1  1  1  1  0.0000000  0 10G 1G 2G 5G10G11G12G18G21G28G29
   9608038.485     7486770.401    23186974.077    23186979.640          11.750  
   9607983.904     7486728.903    23186931.924    23186938.579          11.750  
 -10278098.119    -8008901.898    21944749.562    21944754.790          12.250  
    -36172.851      -28187.069    24792018.715    24792027.116          10.000  
  -5905441.929    -4601635.839    24074836.011    24074845.607          11.000  
  11081197.257     8634679.879    24638703.063    24638712.302          10.500  
  -5466711.347    -4259775.070    20897905.351    20897908.997          12.500  
   -130176.060     -101438.935    21348730.798    21348735.361          12.500  
  -1519884.010    -1184332.212    25186475.201    25186480.288          10.250  
   -541015.288     -421573.693    20526632.985    20526636.515          12.250  
 12  1  1  1  1 30.0000000  0 11G 1G 2G 3G 5G10G11G12G18G21G28G29
   9692680.219     7552724.867    23203081.253    23203086.897          11.500  
   9692625.414     7552683.204    23203039.006    23203045.694          11.500  
         0.787           0.141    25380249.726    25380259.723          10.750  
 -10345559.252    -8061469.003    21931911.892    21931917.661          12.250  
    -40214.556      -31336.504    24791250.168    24791257.924          10.250  
  -6023534.526    -4693655.903    24052363.866    24052372.540          11.250  
  11172400.661     8705747.241    24656059.338    24656067.883          11.250  
  -5502944.560    -4288008.743    20891010.548    20891013.788          12.750  
    -95277.267      -74245.116    21355371.913    21355376.503          12.500  
  -1506916.048    -1174227.384    25188941.394    25188948.059          11.000  
   -512022.885     -398982.259    20532150.104    20532153.493          12.500  
 12  1  1  1  2  0.0000000  0 11G 1G 2G 3G 5G10G11G12G18G21G28G29
   9777353.942     7618704.233    23219193.654    23219200.146          11.000  
   9777298.914     7618662.380    23219151.603    23219158.405          11.500  
    -80633.342      -62831.674    25364904.086    25364915.453          10.000  
 -10412722.946    -8113804.286    21919131.326    21919136.535          12.250  
    -43689.100      -34043.999    24790589.040    24790597.028          10.000  
  -6141580.221    -4785639.456    24029900.885    24029909.388          11.000  
  11263574.976     8776791.938    24673407.869    24673418.549          11.000  
  -5538996.150    -4316100.905    20884149.901    20884153.111          12.750  
    -59817.448      -46614.128    21362119.720    21362124.042          12.500  
  -1493565.527    -1163824.476    25191480.308    25191488.412          10.750  
   -482476.260     -375958.962    20537772.773    20537776.269          12.750  
 12  1  1  1  2 30.0000000  0 11G 1G 2G 3G 5G10G11G12G18G21G28G29
   9862058.353     7684707.541    23235312.682    23235318.565          11.000  
   9862003.128     7684665.473    23235270.676    23235277.047          11.500  
   -161169.779     -125587.249    25349578.588    25349589.608           9.750  
 -10479588.824    -8165907.559    21906407.353    21906412.530          12.000  
    -46597.074      -36310.117    24790034.219    24790043.104          10.000  
  -6259576.226    -4877584.293    24007445.878    24007455.564          11.000  
  11354719.697     8847813.653    24690752.391    24690762.378          10.750  
  -5574864.915    -4344050.580    20877324.292    20877327.750          12.750  
    -23797.925      -18547.026    21368974.280    21368977.997          12.250  
  -1479833.704    -1153124.339    25194093.842    25194101.512          10.250  
   -452375.866     -352504.142    20543500.671    20543504.062          12.750  
 12  1  1  1  3  0.0000000  0 11G 1G 2G 3G 5G10G11G12G18G21G28G29
   9946792.203     7750733.767    23251436.547    23251442.895          11.000  
   9946736.791     7750691.579    23251394.762    23251401.660          11.500  
   -241608.153     -188266.450    25334273.470    25334282.003          10.500  
 -10546156.589    -8217778.515    21893739.638    21893744.726          12.000  
    -48939.140      -38135.254    24789588.410    24789595.569          10.750  
  -6377519.806    -4969488.218    23985002.591    23985011.568          11.250  
  11445834.239     8918811.805    24708091.438    24708101.439          10.500  
  -5610549.538    -4371856.804    20870533.561    20870537.488          12.500  
     12779.947        9955.160    21375934.754    21375938.928          12.500  
  -1465721.744    -1142128.130    25196779.016    25196787.268          10.500  
   -421722.220     -328618.218    20549333.826    20549337.051          12.750  
 12  1  1  1  3 30.0000000  0 11G 1G 2G 3G 5G10G11G12G18G21G28G29
  10031554.291     7816781.986    23267565.893    23267572.900          11.000  
  10031498.688     7816739.631    23267524.439    23267531.542          11.500  
   -321948.098     -250868.950    25318986.648    25318993.790          10.500  
 -10612425.971    -8269416.926    21881129.095    21881134.082          12.250  
    -50716.055      -39519.920    24789249.431    24789257.412          10.000  
  -6495408.221    -5061349.182    23962569.220    23962577.469          11.500  
  11536917.956     8989785.925    24725423.679    24725434.727          10.250  
  -5646048.878    -4399518.615    20863778.562    20863782.097          12.500  
     49914.812       38891.351    21383001.496    21383005.486          12.250  
  -1451231.176    -1130836.835    25199537.410    25199544.039          10.000  
   -390515.824     -304301.580    20555272.137    20555275.640          12.500  
 12  1  1  1  4  0.0000000  0 11G 1G 2G 3G 5G10G11G12G18G21G28G29
  10116343.353     7882851.236    23283701.335    23283708.275          11.000  
  10116287.555     7882808.763    23283659.149    23283666.200          11.250  
   -402189.212     -313394.411    25303716.505    25303722.942          10.000  
 -10678396.572    -8320822.600    21868575.057    21868579.942          12.250  
    -51928.430      -40464.754    24789019.270    24789028.696          10.250  
  -6613238.679    -5153165.000    23940146.443    23940154.192          11.500  
  11627970.268     9060735.540    24742752.291    24742761.954          10.250  
  -5681361.610    -4427035.044    20857058.698    20857062.458          12.500  
     87605.246       68260.472    21390173.207    21390177.961          12.250  
  -1436363.230    -1119251.437    25202366.197    25202374.423           9.750  
   -358757.216     -279554.675    20561315.778    20561319.051          12.500  
 12  1  1  1  4 30.0000000  0 11G 1G 2G 3G 5G10G11G12G18G21G28G29
  10201158.217     7948940.592    23299841.549    23299848.149          11.250  
  10201102.224     7948897.962    23299799.090    23299806.575          11.500  
   -482331.416     -375842.845    25288465.058    25288472.906          10.500  
 -10744068.202    -8371995.275    21856077.936    21856082.580          12.000  
    -52577.070      -40970.196    24788896.113    24788906.205          10.000  
  -6731008.484    -5244933.536    23917736.118    23917742.927          11.500  
  11718990.593     9131660.330    24760073.268    24760083.246          10.500  
  -5716486.501    -4454405.098    20850374.856    20850378.444          12.500  
    125849.864       98061.407    21397451.056    21397455.785          12.500  
  -1421119.144    -1107373.057    25205267.409    25205275.116          10.000  
   -326447.004     -254377.920    20567464.404    20567467.778          12.750  
 12  1  1  1  5  0.0000000  0 11G 1G 2G 3G 5G10G11G12G18G21G28G29
  10285997.634     8015049.110    23315985.586    23315992.943          11.500  
  10285941.469     8015006.321    23315943.609    23315951.098          11.000  
   -562374.137     -438213.724    25273234.825    25273243.689          10.500  
 -10809440.539    -8422934.711    21843638.307    21843642.815          12.250  
    -52662.508      -41036.829    24788880.130    24788889.293          11.000  
  -6848714.854    -5336652.673    23895336.811    23895344.057          11.250  
  11809978.420     9202559.732    24777386.657    24777397.659          10.000  
  -5751422.319    -4481627.814    20843726.279    20843730.083          12.750  
    164647.209      128293.059    21404834.276    21404838.468          12.500  
  -1405500.469    -1095202.737    25208239.743    25208247.212           9.750  
   -293585.764     -228771.801    20573717.576    20573720.988          12.750  
 12  1  1  1  5 30.0000000  0 11G 1G 2G 3G 5G10G11G12G18G21G28G29
  10370860.408     8081175.782    23332134.384    23332141.560          11.250  
  10370804.069     8081132.877    23332092.823    23332100.007          11.250  
   -642317.129     -500506.984    25258021.343    25258031.135          10.250  
 -10874513.296    -8473640.727    21831255.760    21831260.076          12.250  
    -52185.543      -40665.197    24788970.260    24788977.569          10.750  
  -6966355.047    -5428320.205    23872950.845    23872957.990          11.250  
  11900933.157     9273433.265    24794695.107    24794705.905          10.000  
  -5786167.781    -4508702.198    20837114.316    20837118.364          12.750  
    203995.836      158954.281    21412321.800    21412326.543          12.500  
  -1389508.497    -1082741.511    25211282.691    25211289.937           9.750  
   -260174.107     -202736.791    20580075.768    20580078.939          12.500  
 12  1  1  1  6  0.0000000  0 11G 1G 2G 3G 5G10G11G12G18G21G28G29
  10455745.394     8147319.774    23348287.233    23348294.899          11.000  
  10455688.862     8147276.723    23348245.659    23348253.338          11.500  
   -722160.056     -562722.174    25242827.435    25242834.427          11.000  
 -10939286.240    -8524113.115    21818929.557    21818934.357          12.000  
    -51147.108      -39856.022    24789169.226    24789177.214          10.750  
  -7083926.300    -5519934.051    23850577.918    23850585.060          11.000  
  11991854.118     9344280.644    24811997.511    24812007.118          11.250  
  -5820721.607    -4535627.261    20830539.042    20830543.274          12.750  
    243894.282      190043.931    21419914.407    21419918.827          12.500  
  -1373144.714    -1069990.525    25214397.201    25214404.144           9.750  
   -226212.710     -176273.393    20586538.322    20586541.569          12.750  
 12  1  1  1  6 30.0000000  0 11G 1G 2G 3G 5G10G11G12G18G21G28G29
  10540651.361     8213480.112    23364444.235    23364452.281          10.750  
  10540594.621     8213436.910    23364403.276    23364410.128          11.250  
   -801902.772     -624859.261    25227652.608    25227660.978          10.750  
 -11003759.073    -8574351.664    21806660.727    21806665.618          12.250  
    -49547.977      -38609.890    24789473.065    24789481.239           9.750  
  -7201425.870    -5611491.975    23828218.174    23828226.126          11.000  
  12082741.036     9415101.355    24829291.646    24829301.940          10.500  
  -5855082.544    -4562402.015    20824000.439    20824004.644          12.750  
    284341.025      221560.815    21427611.104    21427615.517          12.500  
  -1356410.258    -1056950.814    25217581.501    25217587.839          10.500  
   -191702.215     -149382.146    20593105.169    20593108.644          12.750  
 12  1  1  1  7  0.0000000  0 11G 1G 2G 3G 5G10G11G12G18G21G28G29
  10625577.165     8279655.911    23380605.341    23380613.229          11.250  
  10625520.235     8279612.542    23380563.854    23380571.318          11.250  
   -881544.850     -686918.005    25212498.121    25212505.875          10.250  
 -11067931.533    -8624356.169    21794449.054    21794453.984          12.000  
    -47388.931      -36927.534    24789885.179    24789892.828           9.750  
  -7318850.929    -5702991.911    23805872.577    23805880.264          11.000  
  12173593.067     9485894.933    24846581.628    24846591.114          10.250  
  -5889249.266    -4589025.460    20817498.908    20817502.979          12.750  
    325334.564      253503.797    21435412.225    21435416.677          12.500  
  -1339306.870    -1043623.5201   25220835.671    25220843.016          10.000  
   -156643.300     -122063.567    20599777.014    20599780.404          12.750  
 12  1  1  1  7 30.0000000  0 11G 1G 2G 3G 5G10G11G12G18G21G28G29
  10710521.628     8345846.241    23396769.746    23396777.419          11.250  
  10710464.534     8345802.757    23396728.897    23396735.745          11.500  
   -961085.946     -748898.008    25197362.974    25197369.627          10.250  
 -11131803.428    -8674126.435    21782294.592    21782299.435          12.000  
    -44670.811      -34809.589    24790402.298    24790410.033          10.500  
  -7436198.754    -5794431.661    23783541.758    23783550.125          10.750  
  12264409.795     9556661.049    24863863.858    24863872.936          10.250  
  -5923220.544    -4615496.586    20811034.396    20811038.409          12.500  
    366873.382      285871.633    21443316.736    21443321.064          12.500  
  -1321835.778    -1030009.770    25224161.842    25224168.255          10.000  
   -121036.714      -94318.229    20606552.447    20606556.372          12.500  
 12  1  1  1  8  0.0000000  0 11G 1G 2G 3G 5G10G11G12G18G21G28G29
  10795483.582     8412050.237    23412937.483    23412945.000          11.500  
  10795426.326     8412006.607    23412896.749    23412903.343          11.250  
  -1040525.756     -810799.143    25182245.169    25182251.931          10.000  
 -11195374.484    -8723662.309    21770197.250    21770202.265          12.000  
    -41394.458      -32256.730    24791024.783    24791034.390          10.250  
  -7553466.555    -5885809.019    23761225.794    23761235.037          10.750  
  12355190.817     9627399.224    24881138.235    24881149.243          10.500  
  -5956995.079    -4641814.402    20804607.528    20804611.193          12.500  
    408955.893      318663.151    21451324.791    21451329.479          12.500  
  -1303998.455    -1016110.676    25227555.564    25227562.704          10.500  
    -84883.186      -66146.689    20613432.215    20613436.030          12.500  
 12  1  1  1  8 30.0000000  0 11G 1G 2G 3G 5G10G11G12G18G21G28G29
  10880461.913     8478266.961    23429108.900    23429116.300          11.750  
  10880404.496     8478223.203    23429067.670    23429074.584          11.500  
  -1119864.050     -872621.208    25167146.793    25167155.403           9.750  
 -11258644.518    -8772963.599    21758157.541    21758162.401          12.000  
    -37560.953      -29269.706    24791754.766    24791764.363          10.250  
  -7670651.527    -5977121.876    23738926.555    23738934.943          10.750  
  12445935.487     9698109.144    24898407.289    24898417.146          11.250  
  -5990571.548    -4667977.886    20798218.353    20798221.435          12.750  
    451580.543      351877.117    21459436.041    21459440.691          12.250  
  -1285796.495    -1001927.380    25231019.879    25231026.541          10.500  
    -48183.457      -37549.546    20620416.192    20620419.849          12.500  
 12  1  1  1  9  0.0000000  0 11G 1G 2G 3G 5G10G11G12G18G21G28G29
  10965455.510     8544495.576    23445283.159    23445290.445          11.250  
  10965397.886     8544451.688    23445241.162    23445248.856          11.500  
  -1199100.573     -934363.912    25152068.761    25152075.899           9.750  
 -11321613.269    -8822030.131    21746175.162    21746179.795          12.000  
    -33171.079      -25849.216    24792590.618    24792599.143          10.000  
  -7787750.932    -6068368.030    23716642.868    23716651.449          11.250  
  12536643.319     9768790.399    24915668.678    24915678.586          11.000  
  -6023948.678    -4693986.030    20791866.792    20791870.136          12.500  
    494745.708      385512.249    21467650.041    21467654.845          12.500  
  -1267231.247     -987461.053    25234551.877    25234561.310          11.000  
    -10938.321       -8527.411    20627503.824    20627507.558          12.500  
 12  1  1  1  9 30.0000000  0 11G 1G 2G 3G 5G10G11G12G18G21G28G29
  11050463.202     8610735.168    23461459.833    23461466.964          11.000  
  11050405.420     8610691.156    23461417.834    23461425.323          11.250  
  -1278235.138     -996027.083    25137009.956    25137016.817          10.500  
 -11384280.530    -8870861.732    21734249.713    21734254.681          12.000  
    -28226.166      -21996.011    24793531.555    24793540.743          10.250  
  -7904761.972    -6159545.327    23694376.658    23694384.942          11.250  
  12627313.749     9839442.431    24932923.274    24932932.793          10.500  
  -6057125.115    -4719837.825    20785553.393    20785557.145          12.250  
    538449.800      419567.333    21475966.817    21475971.043          12.500  
  -1248304.271     -972712.823    25238153.776    25238160.683          10.750  
     26851.374       20919.062    20634694.813    20634698.741          12.500  
 12  1  1  1 10  0.0000000  0 11G 1G 2G 3G 5G10G11G12G18G21G28G29
  11135483.894     8676984.899    23477639.144    23477645.955          11.250  
  11135425.948     8676940.750    23477597.085    23477604.210          11.750  
  -1357267.293    -1057610.576    25121970.249    25121977.011          10.250  
 -11446646.121    -8919458.262    21722381.865    21722387.049          12.000  
    -22726.701      -17710.883    24794578.429    24794586.868          10.750  
  -8021681.860    -6250651.618    23672127.564    23672135.132          11.250  
  12717946.344     9910064.988    24950169.871    24950178.673          10.500  
  -6090099.601    -4745532.223    20779278.727    20779282.354          12.500  
    582691.173      454041.074    21484385.791    21484390.043          12.500  
  -1229017.062     -957683.918    25241823.817    25241831.093          10.500  
     65184.830       50789.237    20641989.702    20641993.335          12.500  
 12  1  1  1 10 30.0000000  0 11G 1G 2G 3G 5G10G11G12G18G21G28G29
  11220516.478     8743243.894    23493819.968    23493827.558          11.750  
  11220458.380     8743199.627    23493777.859    23493784.789          11.000  
  -1436196.912    -1119114.098    25106949.682    25106957.784          10.000  
 -11508709.832    -8967819.570    21710571.286    21710576.141          12.250  
    -16674.104      -12994.613    24795730.140    24795737.359          11.250  
  -8138507.839    -6341684.683    23649896.205    23649903.325          10.750  
  12808540.524     9980657.726    24967408.089    24967418.974          10.500  
  -6122870.798    -4771068.221    20773042.423    20773046.159          12.500  
    627468.169      488932.185    21492906.313    21492911.062          12.250  
  -1209371.083     -942375.459    25245561.701    25245570.313          10.500  
    104061.172       81082.454    20649387.907    20649391.064          12.500  
 12  1  1  1 11  0.0000000  0 11G 1G 2G 3G 5G10G11G12G18G21G28G29
  11305559.840     8809511.310    23510003.758    23510010.691          11.500  
  11305501.602     8809466.910    23509961.195    23509968.269          10.750  
  -1515023.634    -1180537.474    25091950.317    25091957.461          10.250  
 -11570471.505    -9015945.522    21698818.238    21698823.452          12.250  
    -10069.508       -7848.082    24796985.977    24796992.998          11.000  
  -8255237.005    -6432642.405    23627682.900    23627690.727          10.750  
  12899095.912    10051220.149    24984640.700    24984650.985          10.500  
  -6155437.391    -4796444.785    20766845.132    20766848.669          12.500  
    672779.143      524239.378    21501529.020    21501533.621          12.000  
  -1189368.109     -926788.778    25249368.337    25249378.414          10.250  
    143479.535      111798.011    20656889.037    20656892.130          12.500  
 12  1  1  1 11 30.0000000  0 11G 1G 2G 3G 5G10G11G12G18G21G28G29
  11390612.914     8875786.300    23526189.054    23526196.685          11.250  
  11390554.555     8875741.775    23526146.259    23526153.225          11.250  
  -1593747.253    -1241880.479    25076969.582    25076977.744          10.500  
 -11631930.919    -9063835.970    21687123.123    21687128.048          12.250  
     -2913.536       -2272.065    24798346.051    24798355.116          10.500  
  -8371866.674    -6523522.558    23605489.216    23605497.107          11.000  
  12989612.049    10121752.000    25001865.454    25001875.745          10.750  
  -6187798.038    -4821660.899    20760687.083    20760690.643          12.250  
    718622.377      559961.315    21510252.864    21510257.025          12.250  
  -1169009.381     -910924.961    25253243.397    25253251.595          10.750  
    183438.992      142935.208    20664492.688    20664496.354          12.500  
 12  1  1  1 12  0.0000000  0 11G 1G 2G 3G 5G10G11G12G18G21G28G29
  11475674.631     8942067.979    23542375.598    23542383.486          11.750  
  11475616.159     8942023.366    23542333.464    23542340.207          11.250  
  -1672367.375    -1303142.892    25062008.102    25062017.168          10.500  
 -11693087.929    -9111490.755    21675485.608    21675490.178          12.250  
      4792.454        3732.626    24799813.343    24799822.447          10.250  
  -8488394.039    -6614322.930    23583314.578    23583322.624          11.000  
  13080088.332    10192252.767    25019082.071    25019093.315          10.250  
  -6219951.431    -4846715.493    20754568.569    20754572.351          12.500  
    764996.182      596096.682    21519077.470    21519081.847          12.250  
  -1148296.603     -894785.188    25257184.903    25257193.129          10.250  
    223938.662      174493.323    20672199.691    20672203.287          12.500  
 12  1  1  1 12 30.0000000  0 11G 1G 2G 3G 5G10G11G12G18G21G28G29
  11560743.918     9008355.593    23558563.421    23558571.187          11.500  
  11560685.312     9008310.881    23558521.230    23558528.516          11.500  
  -1750883.964    -1364324.561    25047065.814    25047074.545          10.250  
 -11753942.389    -9158909.786    21663905.212    21663909.973          12.250  
     13047.536       10165.075    24801386.611    24801394.868          10.250  
  -8604816.251    -6705041.408    23561160.608    23561167.585          10.750  
  13170524.323    10262722.161    25036291.389    25036302.602          10.250  
  -6251896.221    -4871607.538    20748490.047    20748493.555          12.500  
    811898.812      632644.134    21528002.741    21528007.312          12.250  
  -1127231.384     -878370.864    25261194.100    25261201.993          10.250  
    264977.521      206471.623    20680009.202    20680012.687          12.750  
 12  1  1  1 13  0.0000000  0 11G 1G 2G 3G 5G10G11G12G18G21G28G29
  11645819.740     9074648.296    23574753.402    23574760.563          11.500  
  11645760.975     9074603.441    23574711.000    23574717.982          11.250  
  -1829296.704    -1425425.370    25032144.702    25032153.090          10.250  
 -11814494.117    -9206092.933    21652382.438    21652387.333          12.250  
     21850.307       17024.336    24803062.135    24803069.840          10.000  
  -8721130.581    -6795675.809    23539026.226    23539033.538          11.250  
  13260919.700    10333159.832    25053495.639    25053505.882          10.000  
  -6283631.074    -4896336.010    20742450.911    20742454.637          12.750  
    859328.547      669602.300    21537028.231    21537032.834          12.000  
  -1105815.364     -861683.113    25265269.721    25265278.620           9.500  
    306554.667      238869.342    20687920.948    20687924.651          12.750  
 12  1  1  1 13 30.0000000  0 11G 1G 2G 3G 5G10G11G12G18G21G28G29
  11730901.021     9140945.203    23590944.103    23590951.420          11.500  
  11730842.080     9140900.262    23590901.480    23590909.282          11.250  
  -1907605.319    -1486445.005    25017245.077    25017251.811          10.000  
 -11874742.995    -9253040.081    21640917.334    21640922.150          12.000  
     31199.793       24309.455    24804838.573    24804850.457          10.000  
  -8837334.134    -6886223.900    23516913.815    23516920.556          11.500  
  13351273.746    10403565.420    25070689.665    25070698.805          10.250  
  -6315154.659    -4920899.853    20736452.064    20736456.003          12.500  
    907283.607      706969.819    21546153.755    21546158.442          12.000  
  -1084050.058     -844723.218    25269411.560    25269418.890           9.750  
    348669.068      271685.699    20695935.152    20695938.958          12.500  
 12  1  1  1 14  0.0000000  0 11G 1G 2G 3G 5G10G11G12G18G21G28G29
  11815986.713     9207245.555    23607135.369    23607142.516          11.000  
  11815927.643     9207200.512    23607092.349    23607100.991          11.250  
  -1985809.529    -1547383.349    25002363.079    25002370.091          10.500  
 -11934688.873    -9299751.126    21629510.264    21629515.035          12.500  
     41094.570       32019.687    24806721.866    24806732.168          10.000  
  -8953424.131    -6976683.511    23494821.851    23494829.410          11.250  
  13441586.235    10473938.546    25087875.998    25087884.976          10.500  
  -6346465.611    -4945298.000    20730493.779    20730497.402          12.500  
    955762.190      744745.268    21555379.187    21555383.546          12.000  
  -1061937.125     -827492.433    25273617.869    25273626.861          10.250  
    391319.690      304919.893    20704051.299    20704055.098          12.750  
 12  1  1  1 14 30.0000000  0 11G 1G 2G 3G 5G10G11G12G18G21G28G29
  11901075.810     9273548.573    23623327.252    23623334.402          11.250  
  11901016.572     9273503.396    23623284.088    23623292.687          11.000  
  -2063909.300    -1608240.243    24987501.428    24987508.867          10.750  
 -11994331.620    -9346225.969    21618160.166    21618165.267          12.000  
     51533.564       40153.877    24808708.369    24808718.839          10.000  
  -9069397.761    -7067052.480    23472752.887    23472759.722          11.250  
  13531856.681    10544278.933    25105052.127    25105062.797          11.000  
  -6377562.590    -4969529.418    20724576.510    20724579.928          12.500  
   1004762.521      782927.279    21564703.677    21564708.134          12.250  
  -1039478.252     -809992.066    25277891.998    25277900.587           9.750  
    434505.499      338571.118    20712269.172    20712272.971          12.750  
 12  1  1  1 15  0.0000000  0 11G 1G 2G 3G 5G10G11G12G18G21G28G29
  11986167.244     9339853.451    23639519.743    23639526.706          11.500  
  11986107.888     9339808.203    23639476.839    23639484.493          11.250  
  -2141904.231    -1669015.417    24972658.866    24972668.566          10.250  
 -12053671.112    -9392464.500    21606868.156    21606872.884          12.000  
     62515.402       48711.131    24810799.171    24810808.724          10.250  
  -9185252.276    -7157328.571    23450706.275    23450713.488          11.500  
  13622084.642    10614586.198    25122221.662    25122233.710          11.250  
  -6408444.225    -4993593.041    20718699.751    20718703.468          12.500  
   1054282.779      821514.431    21574127.038    21574131.776          12.250  
  -1016675.073     -792223.417    25282231.579    25282238.736          10.250  
    478225.426      372638.544    20720588.986    20720592.671          12.750  
 12  1  1  1 15 30.0000000  0 11G 1G 2G 3G 5G10G11G12G18G21G28G29
  12071260.056     9406159.371    23655712.860    23655720.052          11.500  
  12071200.561     9406114.008    23655669.446    23655677.112          11.250  
  -2219794.167    -1729708.781    24957836.926    24957845.424          10.750  
 -12112707.213    -9438466.635    21595634.577    21595639.103          12.250  
     74039.049       57690.460    24812991.293    24813003.824          10.250  
  -9300984.764    -7247509.625    23428682.511    23428690.246          11.500  
  13712269.628    10684860.004    25139384.586    25139397.342          10.250  
  -6439109.171    -5017487.804    20712864.359    20712867.996          12.500  
   1104321.137      860505.288    21583649.051    21583653.500          12.250  
   -993529.149     -774187.714    25286635.222    25286643.066           9.750  
    522478.412      407121.332    20729009.930    20729013.661          12.750  
 12  1  1  1 16  0.0000000  0 11G 1G 2G 3G 5G10G11G12G18G21G28G29
  12156353.191     9472465.567    23671905.034    23671912.941          11.500  
  12156293.610     9472420.124    23671862.248    23671869.802          11.500  
  -2297578.901    -1790320.239    24943034.838    24943043.537          10.250  
 -12171439.836    -9484232.306    21584458.027    21584462.586          12.250  
     86102.985       67090.837    24815288.417    24815298.910           9.750  
  -9416592.500    -7337593.444    23406683.354    23406691.410          11.250  
  13802411.330    10755099.970    25156538.192    25156548.110          10.000  
  -6469556.068    -5041212.659    20707070.563    20707074.010          12.500  
   1154875.732      899898.431    21593269.611    21593274.155          12.250  
   -970042.344     -755886.384    25291104.615    25291113.205           9.750  
    567263.312      442018.597    20737532.062    20737536.020          12.750  
 12  1  1  1 16 30.0000000  0 11G 1G 2G 3G 5G10G11G12G18G21G28G29
  12241445.747     9538771.258    23688097.888    23688106.148          11.000  
  12241386.040     9538725.731    23688055.039    23688062.649          11.500  
  -2375258.178    -1850849.489    24928253.294    24928260.430          10.250  
 -12229868.915    -9529761.419    21573339.587    21573343.592          12.250  
     98705.876       76911.271    24817686.209    24817697.572          11.000  
  -9532072.641    -7427577.813    23384707.813    23384716.124          11.500  
  13892509.122    10825305.887    25173682.476    25173692.574          10.250  
  -6499783.523    -5064766.531    20701318.364    20701321.888          12.750  
   1205944.701      939692.366    21602987.451    21602992.549          12.250  
   -946216.181     -737320.623    25295637.799    25295647.748          10.500  
    612578.993      477329.443    20746155.647    20746159.618          12.500  
 12  1  1  1 17  0.0000000  0 11G 1G 2G 3G 5G10G11G12G18G21G28G29
  12326536.681     9605075.731    23704290.272    23704298.499          11.250  
  12326476.858     9605030.083    23704247.886    23704255.408          11.250  
  -2452831.819    -1911296.435    24913491.963    24913498.696          11.000  
 -12287994.328    -9575053.924    21562278.926    21562282.502          12.000  
    111846.595       87150.647    24820187.735    24820198.101          11.000  
  -9647422.290    -7517460.585    23362757.514    23362765.672          11.750  
  13982562.754    10895477.427    25190820.159    25190831.665          10.500  
  -6529790.194    -5088148.360    20695608.318    20695612.053          12.500  
   1257526.179      979885.650    21612803.442    21612807.810          12.250  
   -922052.476     -718491.873    25300237.279    25300245.429          10.500  
    658424.300      513053.010    20754879.780    20754883.776          12.250  
 12  1  1  1 17 30.0000000  0 11G 1G 2G 3G 5G10G11G12G18G21G28G29
  12411624.987     9671378.151    23720481.897    23720489.998          10.750  
  12411565.072     9671332.395    23720439.779    23720447.667          11.000  
  -2530299.707    -1971660.937    24898750.152    24898756.832          10.500  
 -12345815.961    -9620109.732    21551275.664    21551279.652          12.000  
    125523.491       97808.041    24822790.763    24822798.776          11.000  
  -9762638.708    -7607239.504    23340832.683    23340840.542          11.500  
  14072571.909    10965614.152    25207947.536    25207959.136          10.500  
  -6559574.665    -5111357.054    20689940.623    20689944.229          13.000  
   1309618.243     1020476.790    21622716.290    21622720.556          12.250  
   -897552.875     -699401.371    25304898.477    25304908.013          11.000  
    704798.057      549188.347    20763704.731    20763708.262          12.250  
 12  1  1  1 18  0.0000000  0 11G 1G 2G 3G 5G10G11G12G18G21G28G29
  12496709.780     9737677.801    23736672.772    23736680.711          11.250  
  12496649.724     9737631.956    23736630.595    23736638.898          11.000  
  -2607661.435    -2031942.815    24884027.294    24884035.087          10.500  
 -12403333.806    -9664928.808    21540330.178    21540334.691          12.000  
    139735.360      108882.124    24825496.133    24825502.724          11.250  
  -9877719.085    -7696912.393    23318933.582    23318941.818          11.500  
  14162536.168    11035715.904    25225067.382    25225078.998          10.500  
  -6589135.586    -5134391.554    20684315.346    20684319.067          12.750  
   1362218.972     1061464.317    21632725.557    21632730.274          12.500  
   -872719.232     -680050.474    25309625.864    25309633.707          10.750  
    751699.042      585734.530    20772629.754    20772633.332          12.250  
 12  1  1  1 18 30.0000000  0 11G 1G 2G 3G 5G10G11G12G18G21G28G29
  12581790.055     9803973.944    23752863.611    23752871.292          11.250  
  12581729.895     9803928.014    23752820.333    23752829.007          11.250  
  -2684917.021    -2092141.928    24869325.984    24869334.315          10.250  
 -12460547.764    -9709511.087    21529442.844    21529447.270          11.750  
    154480.774      120371.981    24828300.379    24828308.920          11.500  
  -9992660.592    -7786477.051    23297060.862    23297068.614          11.250  
  14252454.907    11105782.350    25242179.505    25242190.431          10.250  
  -6618471.600    -5157250.763    20678732.887    20678736.625          12.750  
   1415326.454     1102846.694    21642831.622    21642836.513          12.250  
   -847553.049     -660440.638    25314416.246    25314422.883          10.500  
    799126.090      622690.583    20781654.466    20781658.489          12.500  
 12  1  1  1 19  0.0000000  0 11G 1G 2G 3G 5G10G11G12G18G21G28G29
  12666864.884     9870265.842    23769052.994    23769061.028          11.000  
  12666804.599     9870219.847    23769009.884    23769018.546          11.250  
  -2762066.248    -2152258.182    24854645.633    24854653.706          10.750  
 -12517457.752    -9753856.513    21518613.043    21518617.298          12.000  
    169758.235      132276.400    24831207.329    24831216.582          11.250  
 -10107460.308    -7875931.287    23275215.247    23275222.585          11.000  
  14342328.084    11175813.058    25259281.708    25259294.712          10.000  
  -6647581.267    -5179933.631    20673193.420    20673197.197          12.750  
   1468938.735     1144622.425    21653033.746    21653038.472          12.250  
   -822056.303     -640573.167    25319267.633    25319274.510          10.500  
    847077.859      660055.558    20790779.366    20790783.801          12.500  
 12  1  1  1 19 30.0000000  0 11G 1G 2G 3G 5G10G11G12G18G21G28G29
  12751933.305     9936552.746    23785241.209    23785249.242          11.500  
  12751872.914     9936506.690    23785198.293    23785206.997          11.250  
  -2839108.938    -2212291.357    24839984.635    24839993.927          10.500  
 -12574063.737    -9797965.074    21507840.861    21507845.330          12.250  
    185566.307      144594.253    24834216.511    24834223.895          10.500  
 -10222115.533    -7965272.888    23253396.899    23253404.487          10.750  
  14432155.012    11245807.834    25276376.464    25276388.383          10.250  
  -6676463.220    -5202439.068    20667697.596    20667700.818          12.750  
   1523053.823     1186789.958    21663331.733    21663336.481          12.250  
   -796230.794     -620449.487    25324182.094    25324189.084          10.500  
    895553.154      697828.461    20800003.972    20800008.302          12.750  
 12  1  1  1 20  0.0000000  0 11G 1G 2G 3G 5G10G11G12G18G21G28G29
  12836994.373    10002833.932    23801428.098    23801436.242          11.000  
  12836933.884    10002787.797    23801385.074    23801393.048          11.250  
  -2916044.835    -2272241.356    24825344.350    24825353.278          10.250  
 -12630365.713    -9841836.692    21497127.162    21497131.747          12.250  
    201903.270      157324.261    24837325.054    24837332.805          10.250  
 -10336623.378    -8054499.663    23231606.319    23231614.061          11.250  
  14521935.511    11315766.464    25293460.433    25293472.836          10.500  
  -6705116.060    -5224765.966    20662245.022    20662248.532          12.500  
   1577669.769     1229347.759    21673725.041    21673729.549          12.500  
   -770078.188     -600070.971    25329159.283    25329165.516          10.750  
    944550.654      736008.258    20809328.055    20809332.354          12.750  
 12  1  1  1 20 30.0000000  0 10G 1G 2G 3G 5G10G11G18G21G28G29
  12922047.238    10069108.726    23817613.481    23817621.249          11.000  
  12921986.628    10069062.490    23817570.809    23817577.978          11.250  
  -2992873.915    -2332108.065    24810723.568    24810732.674          10.500  
 -12686363.583    -9885471.377    21486471.399    21486476.006          12.000  
    218768.005      170465.514    24840535.450    24840541.967          10.250  
 -10450980.995    -8143609.402    23209845.222    23209852.574          11.250  
  -6733538.409    -5246913.258    20656836.533    20656839.915          12.500  
   1632784.544     1272294.278    21684212.840    21684217.946          12.250  
   -743600.407     -579438.943    25334197.825    25334204.538          11.000  
    994069.032      774593.975    20818751.239    20818755.372          12.750  
 12  1  1  1 21  0.0000000  0 10G 1G 2G 3G 5G10G11G18G21G28G29
  13007090.952    10135376.394    23833797.036    23833804.769          10.500  
  13007030.219    10135330.056    23833753.863    23833762.020          11.000  
  -3069595.831    -2391891.412    24796123.362    24796132.457          11.250  
 -12742057.320    -9928869.086    21475872.949    21475877.788          11.750  
    236158.693      184016.723    24843845.332    24843851.392          10.500  
 -10565185.594    -8232599.896    23188112.662    23188119.680          11.000  
  -6761728.839    -5268879.827    20651472.008    20651475.442          12.500  
   1688396.170     1315627.929    21694795.508    21694800.173          12.250  
   -716799.175     -558554.858    25339298.738    25339304.860          10.250  
   1044106.990      813584.524    20828273.425    20828277.183          12.500  
 12  1  1  1 21 30.0000000  0 10G 1G 2G 3G 5G10G11G18G21G28G29
  13092124.605    10201636.199    23849978.696    23849986.468          10.500  
  13092063.817    10201589.786    23849935.203    23849943.711          11.000  
  -3146210.539    -2451591.108    24781543.396    24781553.018          10.750  
 -12797446.933    -9972029.796    21465332.610    21465337.561          12.000  
    254073.883      197976.543    24847253.705    24847261.768           9.750  
 -10679234.401    -8321468.967    23166409.740    23166417.041          11.250  
  -6789685.958    -5290664.598    20646152.158    20646155.247          12.250  
   1744502.613     1359347.158    21705472.199    21705477.050          12.250  
   -689676.111     -537420.232    25344459.945    25344466.785          10.500  
   1094663.141      852978.863    20837893.830    20837897.921          12.500  
 12  1  1  1 22  0.0000000  0 10G 1G 2G 3G 5G10G11G18G21G28G29
  13177147.304    10267887.494    23866157.568    23866166.111          11.250  
  13177086.385    10267841.017    23866114.281    23866122.828          10.500  
  -3222717.904    -2511207.140    24766985.383    24766993.687          10.500  
 -12852532.383   -10014953.494    21454850.188    21454855.030          12.000  
    272511.922      212343.792    24850760.365    24850769.821          10.250  
 -10793124.491    -8410214.356    23144737.389    23144744.318          11.750  
  -6817408.348    -5312266.481    20640876.564    20640879.719          12.750  
   1801101.812     1403450.359    21716242.408    21716247.633          12.250  
   -662233.414     -516036.357    25349680.764    25349688.087          10.500  
   1145736.122      892775.928    20847612.710    20847616.690          12.500  
 12  1  1  1 22 30.0000000  0 10G 1G 2G 3G 5G10G11G18G21G28G29
  13262158.171    10334129.540    23882334.694    23882342.269          11.000  
  13262097.202    10334083.004    23882292.114    23882300.035          11.000  
  -3299117.692    -2570739.380    24752446.978    24752455.683          10.500  
 -12907313.682   -10057640.202    21444425.527    21444430.254          11.750  
    291471.277      227117.211    24854369.247    24854376.828          10.250  
 -10906853.028    -8498833.914    23123095.968    23123102.261          11.500  
  -6844894.624    -5333684.352    20635645.890    20635649.431          12.750  
   1858191.727     1447935.940    21727106.394    21727111.481          12.000  
   -634472.823     -494404.780    25354962.537    25354970.638          10.750  
   1197324.529      932974.618    20857430.073    20857433.695          12.750  
 12  1  1  1 23  0.0000000  0  9G 1G 2G 3G 5G11G18G21G28G29
  13347156.337    10400361.727    23898509.305    23898517.402          11.250  
  13347095.300    10400315.110    23898466.689    23898475.232          11.000  
  -3375409.827    -2630187.739    24737929.286    24737937.407          11.000  
 -12961790.826   -10100089.905    21434058.363    21434063.497          12.000  
 -11020417.284    -8587325.375    23101484.990    23101491.938          11.500  
  -6872143.342    -5354917.150    20630460.324    20630464.226          12.750  
   1915770.278     1492802.265    21738063.413    21738068.353          12.000  
   -606396.115     -472526.925    25360305.769    25360313.559           9.750  
   1249426.922      973573.824    20867344.776    20867348.440          12.500  
 12  1  1  1 23 30.0000000  0  9G 1G 2G 3G 5G11G18G21G28G29
  13432140.930    10466583.358    23914680.950    23914689.874          10.750  
  13432079.827    10466536.663    23914638.330    23914647.325          10.750  
  -3451594.180    -2689552.068    24723432.711    24723440.302          11.250  
 -13015963.809   -10142302.600    21423749.643    21423754.853          12.000  
 -11133814.341    -8675686.604    23079905.868    23079912.591          11.750  
  -6899153.118    -5375963.752    20625320.607    20625324.469          12.500  
   1973835.389     1538047.742    21749112.872    21749117.679          12.250  
   -578005.160     -450404.230    25365708.986    25365717.237           9.750  
   1302041.894     1014572.425    20877357.168    20877360.809          12.750  
 12  1  1  1 24  0.0000000  0  9G 1G 2G 3G 5G11G18G21G28G29
  13517111.182    10532793.738    23930851.262    23930858.196          11.250  
  13517049.971    10532746.962    23930808.223    23930817.036          11.250  
  -3527670.547    -2748832.330    24708955.898    24708962.703          10.750  
 -13069832.626   -10184278.301    21413499.238    21413503.826          12.000  
 -11247041.358    -8763915.331    23058359.195    23058365.700          12.000  
  -6925922.515    -5396823.016    20620226.783    20620230.421          12.750  
   2032384.961     1583670.716    21760254.714    21760259.576          12.500  
   -549301.863     -428038.141    25371171.426    25371179.260           9.750  
   1355167.938     1055969.285    20887466.680    20887470.226          12.750  
 12  1  1  1 24 30.0000000  0  9G 1G 2G 3G 5G11G18G21G28G29
  13602066.119    10598992.215    23947017.833    23947025.076          11.250  
  13602004.815    10598945.424    23946974.640    23946982.632          11.500  
  -3603638.782    -2808028.338    24694499.218    24694506.868          11.000  
 -13123397.340   -10226017.011    21403306.172    21403310.820          12.000  
 -11360095.545    -8852009.389    23036845.766    23036852.337          11.750  
  -6952450.123    -5417493.877    20615178.846    20615182.550          12.500  
   2091416.882     1629669.532    21771488.099    21771493.244          12.250  
   -520288.230     -405430.169    25376692.938    25376700.581           9.750  
   1408803.599     1097763.237    20897673.011    20897676.787          12.750  
 12  1  1  1 25  0.0000000  0  9G 1G 2G 3G 5G11G18G21G28G29
  13687004.960    10665178.125    23963181.585    23963189.257          11.250  
  13686943.556    10665131.306    23963137.861    23963145.959          10.750  
  -3679498.829    -2867140.015    24680063.390    24680070.322          11.250  
 -13176657.966   -10267518.769    21393171.000    21393175.561          12.000  
 -11472974.070    -8939966.578    23015365.818    23015372.023          12.000  
  -6978734.503    -5437975.228    20610177.062    20610180.965          12.500  
   2150929.030     1676042.568    21782812.863    21782818.222          11.750  
   -490966.147     -382581.831    25382273.659    25382280.814          10.000  
   1462947.354     1139953.107    20907976.079    20907980.222          12.500  
 12  1  1  1 25 30.0000000  0  9G 1G 2G 3G 5G11G18G21G28G29
  13771926.875    10731350.891    23979341.449    23979349.917          11.250  
  13771865.443    10731303.970    23979298.811    23979306.719          11.000  
  -3755250.529    -2926167.239    24665648.385    24665654.867          11.250  
 -13229614.501   -10308783.606    21383093.677    21383098.076          11.750  
 -11585674.077    -9027784.664    22993919.161    22993926.003          11.500  
  -7004774.243    -5458265.947    20605221.938    20605225.556          12.750  
   2210919.243     1722788.104    21794228.656    21794233.773          12.000  
   -461337.436     -359494.564    25387911.503    25387920.349          10.500  
   1517597.677     1182537.710    20918375.728    20918380.111          12.500  
 12  1  1  1 26  0.0000000  0  9G 1G 2G 3G 5G11G18G21G28G29
  13856831.073    10797509.816    23995497.647    23995506.860          10.750  
  13856769.504    10797462.820    23995455.401    23995463.705          11.000  
  -3830893.874    -2985110.045    24651253.084    24651260.537          11.250  
 -13282267.070   -10349811.539    21373073.985    21373078.682          12.000  
 -11698192.757    -9115461.436    22972507.783    22972514.754          11.750  
  -7030567.907    -5478364.908    20600313.506    20600317.169          12.750  
   2271385.399     1769904.498    21805735.012    21805739.894          12.000  
   -431403.979     -336169.924    25393607.261    25393615.006          11.000  
   1572753.017     1225515.831    20928871.397    20928875.916          12.500  
 12  1  1  1 26 30.0000000  0  9G 1G 2G 3G 5G11G18G21G28G29
  13941716.686    10863654.256    24011650.892    24011659.839          11.250  
  13941655.074    10863607.223    24011608.554    24011616.690          11.250  
  -3906428.615    -3043968.193    24636879.120    24636887.419          10.750  
 -13334615.627   -10390602.605    21363112.477    21363116.881          12.250  
 -11810527.243    -9202994.704    22951131.065    22951138.052          12.000  
  -7056114.070    -5498271.014    20595452.344    20595456.135          12.750  
   2332325.316     1817390.064    21817331.699    21817336.884          12.000  
   -401167.790     -312609.335    25399360.704    25399368.849          10.250  
   1628411.806     1268886.249    20939463.285    20939467.486          12.250  
 12  1  1  1 27  0.0000000  0  9G 1G 2G 3G 5G11G18G21G28G29
  14026582.954    10929783.622    24027801.040    24027809.972          11.250  
  14026521.229    10929736.525    24027757.836    24027766.567          11.000  
  -3981854.708    -3102741.723    24622525.905    24622533.633          10.750  
 -13386660.291   -10431156.866    21353208.761    21353213.347          12.250  
 -11922674.716    -9290382.244    22929790.107    22929797.244          11.500  
  -7081411.290    -5517983.150    20590638.171    20590642.300          12.750  
   2393736.788     1865243.077    21829018.013    21829022.737          12.250  
   -370630.925     -288814.462    25405171.717    25405179.451          10.250  
   1684572.458     1312647.718    20950150.208    20950154.797          12.500  
 12  1  1  1 27 30.0000000  0  9G 1G 2G 3G 5G11G18G21G28G29
  14111429.088    10995897.269    24043946.717    24043956.453          11.250  
  14111367.286    10995850.165    24043904.178    24043912.528          11.250  
  -4057171.993    -3161430.488    24608193.892    24608201.436          11.500  
 -13438401.096   -10471474.359    21343362.797    21343367.077          12.250  
 -12034632.417    -9377621.876    22908485.689    22908492.108          11.000  
  -7106458.124    -5537500.163    20585871.985    20585876.080          12.750  
   2455617.675     1913461.855    21840793.550    21840798.522          12.000  
   -339795.312     -264786.797    25411039.621    25411047.499          10.750  
   1741233.340     1356798.997    20960932.601    20960937.126          12.750  
 12  1  1  1 28  0.0000000  0  9G 1G 2G 3G 5G11G18G21G28G29
  14196254.248    11061994.622    24060089.336    24060097.342          11.500  
  14196192.383    11061947.440    24060046.168    24060054.672          11.000  
  -4132380.511    -3220034.443    24593881.901    24593890.368          10.750  
 -13489838.107   -10511555.145    21333574.768    21333579.033          12.250  
 -12146397.425    -9464711.382    22887216.957    22887224.021          11.250  
  -7131253.159    -5556820.986    20581153.877    20581157.753          12.500  
   2517965.738     1962044.676    21852657.999    21852663.301          12.000  
   -308662.728     -240527.765    25416963.661    25416971.744          10.250  
   1798392.861     1401338.813    20971809.897    20971813.965          12.750  
 12  1  1  1 28 30.0000000  0  9G 1G 2G 3G 5G11G18G21G28G29
  14281057.667    11128075.090    24076225.683    24076235.085          11.750  
  14280995.781    11128027.829    24076183.794    24076192.089          10.750  
  -4207480.025    -3278553.517    24579590.654    24579599.690          10.750  
 -13540971.428   -10551399.265    21323844.236    21323848.972          12.500  
 -12257966.926    -9551648.549    22865985.899    22865992.963          11.500  
  -7155794.949    -5575944.469    20576483.743    20576487.459          12.750  
   2580778.764     2010989.799    21864610.956    21864616.220          12.250  
   -277235.346     -216039.075    25422944.260    25422953.351          10.250  
   1856049.355     1446265.887    20982781.454    20982785.422          12.750  
 12  1  1  1 29  0.0000000  0  9G 1G 2G 3G 5G11G18G21G28G29
  14365838.667    11194138.008    24092359.691    24092368.459          11.500  
  14365776.673    11194090.699    24092315.990    24092325.579          10.750  
  -4282470.529    -3336987.603    24565320.957    24565328.526          10.500  
 -13591801.125   -10591006.798    21314171.779    21314176.210          12.500  
 -12369338.115    -9638431.196    22844792.625    22844799.343          11.250  
  -7180082.035    -5594869.487    20571862.195    20571865.698          12.500  
   2644054.507     2060295.494    21876652.165    21876657.245          12.250  
   -245515.182     -191322.073    25428979.129    25428990.052          10.250  
   1914201.136     1491578.882    20993847.349    20993851.490          12.500  
 12  1  1  1 29 30.0000000  0  9G 1G 2G 3G 5G11G18G21G28G29
  14450596.447    11260182.824    24108488.851    24108497.637          11.000  
  14450534.406    11260135.481    24108446.590    24108455.311          10.750  
  -4357351.856    -3395336.661    24551071.005    24551078.733          10.250  
 -13642327.290   -10630377.819    21304556.871    21304561.512          12.500  
 -12480508.175    -9725057.087    22823637.250    22823644.576          11.500  
  -7204112.986    -5613594.923    20567289.359    20567292.688          12.250  
   2707790.731     2109960.026    21888780.813    21888785.797          12.250  
   -213504.145     -166378.465    25435072.170    25435082.277          10.250  
   1972846.534     1537276.512    21005007.191    21005011.656          12.500  
 12  1  1  1 30  0.0000000  0  9G 1G 2G 3G 5G11G18G21G28G29
  14535330.203    11326208.965    24124613.158    24124621.568          10.500  
  14535268.107    11326161.574    24124571.244    24124579.560          10.750  
  -4432123.946    -3453600.596    24536842.519    24536850.705          10.500  
 -13692550.007   -10669512.389    21294999.811    21295004.276          12.500  
 -12591474.260    -9811524.061    22802520.964    22802527.959          11.250  
  -7227886.368    -5632119.655    20562765.537    20562768.688          12.500  
   2771985.214     2159981.616    21900996.439    21901001.813          12.250  
   -181204.358     -141209.878    25441219.884    25441228.657          10.000  
   2031983.805     1583357.438    21016260.479    21016265.277          12.750  
 12  1  1  1 30 30.0000000  0  9G 1G 2G 3G 5G11G18G21G28G29
  14620039.231    11392215.820    24140732.270    24140742.544          11.000  
  14619977.076    11392168.393    24140690.608    24140699.148          11.000  
  -4506786.810    -3511779.363    24522634.238    24522643.082          10.250  
 -13742469.411   -10708410.611    21285500.878    21285504.851          12.500  
 -12702233.532    -9897829.881    22781443.909    22781451.496          11.250  
  -7251400.742    -5650442.537    20558290.837    20558294.036          12.750  
   2836635.665     2210358.519    21913299.298    21913304.195          12.250  
   -148617.874     -115817.827    25447420.065    25447427.730          10.000  
   2091611.258     1629820.304    21027607.391    21027611.999          12.500  
 12  1  1  1 31  0.0000000  0  9G 1G 2G 3G 5G11G18G21G28G29
  14704722.801    11458202.851    24156847.058    24156857.056          10.750  
  14704660.597    11458155.366    24156805.339    24156813.572          10.750  
  -4581340.306    -3569872.888    24508448.325    24508456.532          10.500  
 -13792085.588   -10747072.534    21276058.879    21276063.250          12.250  
 -12812783.195    -9983972.359    22760407.156    22760414.184          11.500  
  -7274654.639    -5668562.454    20553865.614    20553869.278          12.750  
   2901739.811     2261088.942    21925688.235    21925693.126          12.250  
   -115746.492      -90203.918    25453675.469    25453684.659          10.000  
   2151727.103     1676663.755    21039047.153    21039051.766          12.500  
 12  1  1  1 31 30.0000000  0  9G 1G 2G 3G 5G11G18G21G28G29
  14789380.233    11524169.461    24172957.576    24172966.632          10.750  
  14789317.987    11524121.994    24172915.246    24172923.659          10.500  
  -4655784.314    -3627881.217    24494281.597    24494290.012          10.500  
 -13841398.660   -10785498.301    21266674.953    21266679.571          12.250  
 -12923120.364   -10069949.276    22739410.693    22739417.441          11.750  
  -7297646.602    -5686478.278    20549490.367    20549493.913          12.750  
   2967295.378     2312171.109    21938162.898    21938168.284          12.000  
    -82592.575      -64369.675    25459985.163    25459992.078          10.500  
   2212329.614     1723886.415    21050579.586    21050584.017          12.250  
 12  1  1  1 32  0.0000000  0  9G 1G 2G 3G 5G11G18G21G28G29
  14874010.769    11590115.166    24189061.406    24189072.031          11.000  
  14873948.501    11590067.623    24189019.371    24189028.959          10.500  
  -4730118.868    -3685804.184    24480136.270    24480143.952          10.500  
 -13890408.746   -10823687.944    21257348.777    21257353.184          12.500  
 -13033242.275   -10155758.467    22718454.823    22718461.684          11.500  
  -7320375.193    -5704188.878    20545165.463    20545168.789          12.500  
   3033300.072     2363603.252    21950723.140    21950728.772          12.250  
    -49157.842      -38316.855    25466346.975    25466355.121          11.000  
   2273416.973     1771486.877    21062204.173    21062208.650          12.250  
 12  1  1  1 32 30.0000000  0  9G 1G 2G 3G 5G11G18G21G28G29
  14958613.677    11656039.346    24205161.512    24205171.848          10.500  
  14958551.404    11655991.796    24205118.726    24205128.116          11.000  
  -4804343.923    -3743641.793    24466011.404    24466018.572          10.750  
 -13939115.956   -10861641.609    21248079.707    21248084.277          12.500  
 -13143146.131   -10241397.709    22697540.898    22697547.421          11.750  
  -7342838.974    -5721693.129    20540890.661    20540893.767          12.750  
   3099751.547     2415383.547    21963368.675    21963374.110          12.000  
    -15444.780      -12046.993    25472761.814    25472770.168          11.250  
   2334987.379     1819463.741    21073920.837    21073924.780          12.250  
 12  1  1  1 33  0.0000000  0  9G 1G 2G 3G 5G11G18G21G28G29
  15043188.332    11721941.474    24221255.252    24221265.051          10.500  
  15043126.039    11721893.942    24221213.215    24221223.121          11.000  
  -4878459.325    -3801393.984    24451907.513    24451915.234          10.250  
 -13987520.457   -10899359.370    21238868.944    21238872.976          12.250  
 -13252829.059   -10326864.818    22676669.308    22676675.561          11.750  
  -7365036.464    -5738989.908    20536666.697    20536670.057          12.750  
   3166647.527     2467510.182    21976098.813    21976103.925          12.000  
     18544.833       14438.215    25479229.932    25479239.454          10.500  
   2397039.011     1867815.571    21085728.850    21085732.819          12.500  
 12  1  1  1 33 30.0000000  0  9G 1G 2G 3G 5G11G18G21G28G29
  15127734.073    11787821.066    24237343.941    24237353.370          10.750  
  15127671.631    11787773.420    24237302.006    24237312.105          11.000  
  -4952465.094    -3859060.809    24437824.648    24437832.963          10.250  
 -14035622.371   -10936841.371    21229715.378    21229719.877          12.250  
 -13362288.235   -10412157.606    22655839.649    22655846.260          11.500  
  -7386966.227    -5756078.044    20532493.251    20532497.035          12.500  
   3233985.675     2519981.348    21988912.782    21988917.773          12.000  
     52808.791       41137.412    25485751.146    25485759.110          10.000  
   2459570.008     1916540.950    21097628.204    21097632.344          12.250  
 12  1  1  1 34  0.0000000  0 10G 1G 2G 3G 5G11G14G18G21G28G29
  15212250.082    11853677.519    24253426.760    24253436.802          11.000  
  15212187.632    11853629.848    24253384.506    24253393.767          10.750  
  -5026361.138    -3916642.117    24423763.032    24423770.563          10.500  
 -14083421.855   -10974087.725    21220619.733    21220623.839          12.250  
 -13471520.889   -10497273.877    22635053.284    22635060.046          11.750  
         0.701           0.086    25234524.098    25234535.125          11.500  
  -7408626.820    -5772956.429    20528371.407    20528374.885          12.500  
   3301763.618     2572795.233    22001810.934    22001815.889          12.000  
     87345.065       68048.673    25492324.608    25492330.935          10.750  
   2522578.523     1965638.404    21109618.641    21109622.766          12.250  
 12  1  1  1 34 30.0000000  0 10G 1G 2G 3G 5G11G14G18G21G28G29
  15296735.749    11919510.361    24269504.160    24269514.625          11.000  
  15296673.302    11919462.628    24269461.722    24269471.339          10.750  
  -5100147.464    -3974137.856    24409721.947    24409729.542          10.250  
 -14130919.072   -11011098.518    21211581.270    21211585.324          12.000  
 -13580524.190   -10582211.410    22614310.426    22614317.300          12.000  
    -80064.629      -62388.374    25219288.434    25219300.973          11.000  
  -7430016.773    -5789623.942    20524301.306    20524305.156          12.750  
   3369979.015     2625950.006    22014792.035    22014796.898          12.000  
    122151.591       95170.473    25498946.581    25498954.110          10.500  
   2586062.644     2015106.474    21121699.125    21121703.638          12.250  
 12  1  1  1 35  0.0000000  0 10G 1G 2G 3G 5G11G14G18G21G28G29
  15381190.455    11985319.015    24285575.751    24285585.240          10.250  
  15381127.987    11985271.279    24285532.905    24285542.181          10.750  
  -5173823.984    -4031548.074    24395701.217    24395709.576          10.500  
 -14178114.171   -11047873.915    21202600.056    21202604.273          12.250  
 -13689295.339   -10666968.040    22593611.947    22593618.457          12.000  
   -160220.154     -124847.031    25204033.671    25204046.422          11.000  
  -7451134.645    -5806079.422    20520282.753    20520286.238          12.750  
   3438629.515     2679443.815    22027855.441    22027861.194          12.000  
    157226.057      122501.156    25505620.088    25505628.090          10.250  
   2650020.496     2064943.682    21133869.820    21133874.608          12.000  
 12  1  1  1 35 30.0000000  0 10G 1G 2G 3G 5G11G14G18G21G28G29
  15465613.516    12051102.985    24301641.715    24301650.731          10.500  
  15465551.008    12051055.228    24301598.292    24301607.722          10.500  
  -5247390.725    -4088872.783    24381702.159    24381710.498          10.750  
 -14225007.307   -11084414.008    21193676.689    21193680.990          12.500  
 -13797831.505   -10751541.584    22572958.488    22572964.923          12.000  
   -240463.166     -187373.874    25188765.473    25188776.247          11.000  
  -7471978.971    -5822321.764    20516316.011    20516319.568          12.500  
   3507712.744     2733274.805    22041001.752    22041006.980          12.250  
    192566.430      150039.008    25512346.171    25512353.448          10.750  
   2714450.145     2115148.522    21146130.473    21146135.043          12.250  
 12  1  1  1 36  0.0000000  0 10G 1G 2G 3G 5G11G14G18G21G28G29
  15550004.326    12116861.860    24317700.905    24317710.523          10.500  
  15549941.765    12116814.062    24317657.787    24317666.839          10.750  
  -5320847.596    -4146111.871    24367724.658    24367732.410          10.750  
 -14271598.681   -11120718.951    21184810.693    21184815.161          12.500  
 -13906129.914   -10835929.845    22552349.807    22552356.519          12.000  
   -320790.627     -249966.633    25173479.332    25173489.032           9.750  
  -7492548.284    -5838349.804    20512401.772    20512405.357          12.750  
   3577226.327     2787441.144    22054230.024    22054235.386          12.000  
    228170.519      177782.357    25519119.585    25519129.651          10.500  
   2779349.658     2165719.498    21158480.777    21158484.922          12.250  
 12  1  1  1 36 30.0000000  0 10G 1G 2G 3G 5G11G14G18G21G28G29
  15634362.165    12182595.081    24333754.163    24333763.196          10.500  
  15634299.582    12182547.254    24333711.077    24333720.121          10.750  
  -5394194.621    -4203265.334    24353766.867    24353774.554          10.750  
 -14317888.442   -11156788.887    21176001.825    21176006.650          12.500  
 -14014187.716   -10920130.636    22531786.967    22531793.430          12.000  
   -401200.023     -312623.152    25158179.354    25158187.715          10.250  
  -7512841.129    -5854162.422    20508540.460    20508543.669          12.750  
   3647167.856     2841940.958    22067539.444    22067544.733          12.250  
    264036.372      205729.668    25525947.243    25525952.946          11.000  
   2844717.089     2216655.062    21170919.730    21170924.087          12.250  
 12  1  1  1 37  0.0000000  0 10G 1G 2G 3G 5G11G14G18G21G28G29
  15718686.472    12248302.133    24349800.462    24349810.231          10.750  
  15718623.909    12248254.318    24349757.535    24349767.094          11.000  
  -5467431.799    -4260333.154    24339828.961    24339837.901          10.750  
 -14363876.813   -11192623.951    21167250.798    21167255.431          12.500  
 -14122002.179   -11004141.780    22511270.635    22511276.883          12.000  
   -481688.363     -375341.242    25142859.842    25142870.580          11.000  
  -7532856.052    -5869758.493    20504731.702    20504734.902          12.750  
   3717534.959     2896772.356    22080929.557    22080935.565          12.000  
    300161.609      233879.094    25532820.843    25532828.162          11.000  
   2910550.461     2267953.701    21183447.616    21183452.072          12.250  
 12  1  1  1 37 30.0000000  0 10G 1G 2G 3G 5G11G14G18G21G28G29
  15802976.623    12313982.526    24365841.019    24365850.316          11.000  
  15802914.002    12313934.722    24365797.665    24365806.879          10.750  
  -5540558.992    -4317315.374    24325913.672    24325922.046          11.250  
 -14409563.932   -11228224.299    21158556.644    21158561.020          12.500  
 -14229570.447   -11087961.112    22490800.765    22490807.151          11.750  
   -562252.863     -438118.643    25127530.671    25127540.253          11.000  
  -7552591.596    -5885136.852    20500976.037    20500979.410          13.000  
   3788325.207     2951933.485    22094400.484    22094406.459          12.250  
    336544.108      262229.092    25539744.118    25539751.571          10.250  
   2976847.749     2319613.857    21196063.442    21196068.044          12.250  
 12  1  1  1 38  0.0000000  0 10G 1G 2G 3G 5G11G14G18G21G28G29
  15887232.023    12379635.859    24381873.693    24381883.830          11.250  
  15887169.312    12379588.061    24381830.362    24381840.539          10.750  
  -5613576.298    -4374211.917    24312019.039    24312027.456          11.250  
 -14454950.038   -11263590.075    21149919.851    21149924.366          12.500  
 -14336889.741   -11171586.430    22470378.516    22470385.029          12.000  
   -642890.601     -500953.157    25112185.223    25112196.100          11.000  
  -7572046.318    -5900296.392    20497273.826    20497277.453          12.750  
   3859536.218     3007422.490    22107951.603    22107957.793          12.250  
    373181.827      290777.872    25546714.748    25546724.389          10.500  
   3043606.973     2371633.950    21208767.187    21208772.024          12.500  
 12  1  1  1 38 30.0000000  0 10G 1G 2G 3G 5G11G14G18G21G28G29
  15971451.977    12445261.588    24397900.380    24397910.081          11.000  
  15971389.260    12445213.810    24397857.391    24397868.155          10.750  
  -5686483.663    -4431022.819    24298144.878    24298154.097          11.000  
 -14500035.303   -11298721.450    21141340.352    21141345.073          12.500  
 -14443957.278   -11255015.583    22450004.480    22450010.606          12.000  
   -723598.902     -563842.473    25096825.844    25096837.652          10.500  
  -7591218.749    -5915235.957    20493625.647    20493629.367          12.750  
   3931165.513     3063237.428    22121582.560    22121588.080          12.000  
    410072.369      319523.620    25553736.679    25553747.046          10.250  
   3110826.115     2424012.403    21221558.957    21221563.405          12.500  
 12  1  1  1 39  0.0000000  0 10G 1G 2G 3G 5G11G14G18G21G28G29
  16055635.926    12510859.318    24413920.413    24413929.537          10.750  
  16055573.195    12510811.470    24413877.536    24413887.104          11.000  
  -5759281.116    -4487748.020    24284292.432    24284300.560          10.750  
 -14544819.951   -11333618.578    21132818.215    21132822.760          12.500  
 -14550770.242   -11338246.386    22429678.568    22429684.317          11.750  
   -804374.673     -626784.575    25081456.491    25081465.807          11.000  
  -7610107.432    -5929954.417    20490031.151    20490034.615          12.500  
   4003210.714     3119376.452    22135292.335    22135297.662          12.250  
    447213.730      348464.828    25560803.174    25560816.134          10.250  
   3178503.132     2476747.634    21234437.545    21234441.795          12.250  
 12  1  1  1 39 30.0000000  0  9G 1G 2G 3G 5G11G14G18G21G29
  16139783.333    12576428.554    24429933.185    24429943.514          10.500  
  16139720.611    12576380.666    24429890.642    24429900.399          10.750  
  -5831968.602    -4544387.568    24270459.792    24270468.514          10.500  
 -14589304.190   -11368281.608    21124353.106    21124357.658          12.250  
 -14657325.878   -11421276.650    22409401.316    22409407.689          12.000  
   -885215.095     -689777.009    25066072.106    25066084.399          10.500  
  -7628710.900    -5944450.626    20486490.847    20486494.538          12.500  
   4075669.354     3175837.630    22149080.777    22149086.491          12.250  
   3246635.900     2529838.037    21247402.666    21247407.175          12.500  
 12  1  1  1 40  0.0000000  0  9G 1G 2G 3G 5G11G14G18G21G29
  16223893.612    12641968.799    24445938.613    24445949.295          10.750  
  16223830.912    12641920.942    24445896.406    24445906.585          11.000  
  -5904546.126    -4600941.430    24256648.478    24256657.951          11.250  
 -14633488.254   -11402710.737    21115945.191    21115949.370          12.500  
 -14763621.396   -11504104.220    22389173.616    22389180.100          11.750  
   -966117.475     -752817.671    25050676.031    25050688.894          10.500  
  -7647027.689    -5958723.484    20483005.509    20483008.938          12.750  
   4148538.988     3232619.053    22162947.329    22162953.531          12.250  
   3315222.388     2583281.980    21260453.996    21260458.984          12.500  
 12  1  1  1 40 30.0000000  0  9G 1G 2G 3G 5G11G14G18G21G29
  16307966.183    12707479.693    24461937.327    24461947.450          11.000  
  16307903.446    12707431.796    24461894.738    24461905.354          10.750  
  -5977013.699    -4657409.645    24242858.828    24242867.384          11.750  
 -14677372.352   -11436906.125    21107594.277    21107598.476          12.250  
 -14869654.017   -11586726.952    22368996.525    22369002.708          12.000  
  -1047078.908     -815904.289    25035270.517    25035282.467          10.250  
  -7665056.388    -5972771.833    20479574.754    20479578.120          12.500  
   4221817.139     3289718.812    22176892.022    22176897.734          12.250  
   3384260.531     2637077.838    21273591.846    21273596.729          12.500  
 12  1  1  1 41  0.0000000  0  9G 1G 2G 3G 5G11G14G18G21G29
  16392000.481    12772960.721    24477928.941    24477938.477          11.000  
  16391937.665    12772912.816    24477886.649    24477895.636          11.000  
  -6049371.384    -4713792.168    24229089.914    24229097.131          11.250  
 -14720956.714   -11470867.948    21099300.352    21099304.755          12.500  
 -14975420.982   -11669142.693    22348869.716    22348876.056          11.750  
  -1128096.391     -879034.655    25019853.386    25019865.242          10.000  
  -7682795.490    -5986594.529    20476199.130    20476202.695          12.500  
   4295501.346     3347134.992    22190913.387    22190919.405          12.250  
   3453748.172     2691223.961    21286814.853    21286819.801          12.500  
 12  1  1  1 41 30.0000000  0  9G 1G 2G 3G 5G11G14G18G21G29
  16475995.924    12838411.510    24493912.757    24493921.895          10.500  
  16475933.077    12838363.551    24493870.048    24493879.434          10.750  
  -6121619.134    -4770089.064    24215341.688    24215348.947          11.250  
 -14764241.592   -11504596.414    21091063.660    21091068.146          12.250  
 -15080919.493   -11751349.252    22328793.883    22328799.837          11.750  
  -1209166.943     -942206.420    25004425.683    25004437.902          10.500  
  -7700243.576    -6000190.453    20472878.747    20472882.581          12.500  
   4369589.194     3404865.661    22205011.688    22205017.980          12.000  
   3523683.192     2745718.687    21300123.564    21300127.892          12.250  
 12  1  1  1 42  0.0000000  0  9G 1G 2G 3G 5G11G14G18G21G29
  16559951.968    12903831.631    24509888.616    24509898.785          10.500  
  16559889.122    12903783.633    24509845.817    24509856.326          10.500  
  -6193757.003    -4826300.317    24201614.340    24201621.154          11.250  
 -14807227.213   -11538091.667    21082883.625    21082888.060          12.250  
 -15186146.812   -11833344.447    22308770.175    22308776.146          12.000  
  -1290287.820    -1005417.399    24988987.885    24989000.225          10.500  
  -7717399.197    -6013558.463    20469614.291    20469617.958          12.750  
   4444078.128     3462908.881    22219186.655    22219192.406          12.000  
   3594063.453     2800560.362    21313516.400    21313520.669          12.000  
 12  1  1  1 42 30.0000000  0  9G 1G 2G 3G 5G11G14G18G21G29
  16643868.067    12969220.618    24525856.992    24525868.711          10.500  
  16643805.211    12969172.639    24525815.078    24525825.403          10.500  
  -6265784.973    -4882425.950    24187907.847    24187915.216          11.000  
 -14849913.835   -11571353.959    21074760.322    21074765.140          12.500  
 -15291100.151   -11915126.186    22288798.197    22288804.138          11.750  
  -1371456.111    -1068665.139    24973542.141    24973554.686          10.750  
  -7734260.862    -6026697.448    20466405.473    20466409.356          12.500  
   4518965.708     3521262.735    22233437.423    22233443.304          12.250  
   3664886.798     2855747.284    21326993.747    21326998.187          12.000  
 12  1  1  1 43  0.0000000  0  9G 1G 2G 3G 5G11G14G18G21G29
  16727743.711    13034578.070    24541819.258    24541829.764          10.500  
  16727680.889    13034530.136    24541776.941    24541786.832          11.000  
  -6337703.076    -4938465.965    24174222.847    24174230.206          11.000  
 -14892301.676   -11604383.453    21066694.228    21066699.218          12.500  
 -15395776.775   -11996692.292    22268878.456    22268884.764          11.750  
  -1452668.802    -1131947.615    24958087.193    24958099.512          11.500  
  -7750827.135    -6039606.257    20463253.196    20463256.963          12.500  
   4594249.431     3579925.271    22247763.602    22247769.722          12.000  
   3736151.046     2911277.757    21340554.841    21340559.559          12.250  
 12  1  1  1 43 30.0000000  0  9G 1G 2G 3G 5G11G14G18G21G29
  16811578.489    13099903.674    24557772.447    24557783.709          10.750  
  16811515.656    13099855.707    24557730.754    24557739.017          10.500  
  -6409511.367    -4994420.409    24160557.690    24160565.009          11.000  
 -14934391.025   -11637180.319    21058684.817    21058689.827          12.500  
 -15500173.915   -12078040.628    22249012.133    22249018.243          12.000  
  -1533922.928    -1195262.364    24942626.239    24942637.098          10.750  
  -7767096.596    -6052283.757    20460157.267    20460161.002          12.500  
   4669926.783     3638894.518    22262164.951    22262170.951          12.000  
   3807853.973     2967150.081    21354199.348    21354204.595          12.250  
 12  1  1  1 44  0.0000000  0  9G 1G 2G 3G 5G11G14G18G21G29
  16895371.724    13165196.874    24573718.036    24573729.092          11.000  
  16895308.870    13165148.885    24573675.593    24573685.209          10.750  
  -6481209.853    -5050289.312    24146913.501    24146921.387          11.000  
 -14976182.134   -11669744.811    21050732.451    21050737.426          12.500  
 -15604288.833   -12159169.045    22229199.779    22229205.754          11.750  
  -1615215.673    -1258607.200    24927157.633    24927168.065          10.250  
  -7783067.758    -6064728.826    20457117.932    20457121.360          12.500  
   4745995.265     3698168.556    22276640.060    22276646.486          12.000  
   3879993.408     3023362.548    21367927.353    21367932.331          12.500  
 12  1  1  1 44 30.0000000  0  9G 1G 2G 3G 5G11G14G18G21G29
  16979122.970    13230457.401    24589655.267    24589665.977          11.000  
  16979060.099    13230409.437    24589613.328    24589622.769          10.750  
  -6552798.548    -5106072.665    24133291.060    24133298.307          11.000  
 -15017675.287   -11702077.126    21042836.568    21042841.135          12.500  
 -15708118.792   -12240075.407    22209441.709    22209447.538          11.750  
  -1696543.993    -1321979.804    24911680.336    24911691.815          10.250  
  -7798739.179    -6076940.341    20454135.742    20454139.420          12.500  
   4822452.371     3757745.405    22291189.551    22291195.429          12.000  
   3952567.121     3079913.375    21381737.683    21381742.612          12.250  
 12  1  1  1 45  0.0000000  0  9G 1G 2G 3G 5G11G14G18G21G29
  17062831.686    13295684.822    24605584.767    24605595.147          11.000  
  17062768.803    13295636.841    24605542.506    24605552.875          10.750  
  -6624277.505    -5161770.508    24119689.219    24119696.031          11.500  
 -15058870.723   -11734177.457    21034997.491    21035001.809          12.500  
 -15811661.024   -12320757.587    22189738.262    22189744.068          12.000  
  -1777905.005    -1385377.875    24896197.337    24896207.978          10.250  
  -7814109.423    -6088917.164    20451210.625    20451214.604          12.750  
   4899295.579     3817623.122    22305812.472    22305818.279          12.000  
   4025572.845     3136800.854    21395630.417    21395635.270          12.250  
 12  1  1  1 45 30.0000000  0  9G 1G 2G 3G 5G11G14G18G21G29
  17146497.500    13360878.716    24621506.014    24621516.414          11.250  
  17146434.695    13360830.759    24621463.827    24621473.147          10.750  
  -6695646.767    -5217382.867    24106107.521    24106114.941          11.250  
 -15099768.734   -11766046.028    21027214.827    21027219.095          12.250  
 -15914912.817   -12401213.438    22170090.135    22170095.533          12.000  
  -1859295.701    -1448799.066    24880708.389    24880720.522          11.000  
  -7829177.044    -6100658.154    20448343.347    20448347.450          13.000  
   4976522.344     3877799.732    22320508.115    22320514.625          12.000  
   4099008.343     3194023.225    21409604.798    21409609.302          12.500  
 12  1  1  1 46  0.0000000  0  9G 1G 2G 3G 5G11G14G18G21G29
  17230119.822    13426038.772    24637418.498    24637429.508          11.250  
  17230056.993    13425990.844    24637376.507    24637386.025          10.750  
  -6766906.397    -5272909.799    24092546.772    24092554.566          10.750  
 -15140369.614   -11797683.086    21019488.487    21019493.182          12.250  
 -16017871.437   -12481440.838    22150497.714    22150503.704          12.000  
  -1940713.182    -1512241.080    24865216.166    24865227.885          11.250  
  -7843940.585    -6112162.233    20445534.204    20445538.113          12.750  
   5054130.154     3938273.275    22335276.268    22335283.000          11.750  
   4172871.363     3251578.722    21423660.620    21423665.238          12.250  
 12  1  1  1 46 30.0000000  0  9G 1G 2G 3G 5G11G14G18G21G29
  17313698.221    13491164.586    24653323.589    24653333.782          11.000  
  17313635.377    13491116.650    24653281.279    24653290.871          10.500  
  -6838056.390    -5328351.309    24079007.859    24079015.523          11.000  
 -15180673.648   -11829088.812    21011818.987    21011823.446          12.250  
 -16120534.159   -12561437.675    22130961.297    22130967.381          12.000  
  -2022154.372    -1575701.614    24849718.418    24849729.392          10.500  
  -7858398.614    -6123428.249    20442782.861    20442786.856          12.750  
   5132116.505     3999041.741    22350116.625    22350123.519          11.750  
   4247159.580     3309465.535    21437797.339    21437801.892          12.250  
 12  1  1  1 47  0.0000000  0  9G 1G 2G 3G 5G11G14G18G21G29
  17397232.223    13556255.773    24669220.041    24669230.174          10.750  
  17397169.327    13556207.844    24669176.960    24669187.018          10.000  
  -6909096.879    -5383707.427    24065489.042    24065496.697          11.750  
 -15220681.120   -11860263.446    21004205.718    21004210.180          12.250  
 -16222898.232   -12641201.808    22111482.098    22111487.771          12.000  
  -2103616.369    -1639178.350    24834215.860    24834228.280          10.500  
  -7872549.687    -6134455.077    20440090.245    20440093.692          13.000  
   5210478.816     4060103.154    22365028.824    22365034.872          11.750  
   4321870.699     3367681.895    21452014.186    21452019.345          12.250  
 12  1  1  1 47 30.0000000  0  9G 1G 2G 3G 5G11G14G18G21G29
  17480721.370    13621312.051    24685107.821    24685117.507          10.750  
  17480658.490    13621264.104    24685064.456    24685075.999           9.750  
  -6980027.811    -5438978.220    24051991.596    24051998.811          11.250  
 -15260392.317   -11891207.235    20996649.585    20996653.377          12.250  
 -16324960.987   -12720731.141    22092059.977    22092065.704          12.000  
  -2185096.177    -1702668.891    24818710.689    24818722.778          10.250  
  -7886392.360    -6145241.598    20437456.097    20437459.819          12.750  
   5289214.548     4121455.567    22380012.164    22380018.146          11.750  
   4397002.431     3426225.998    21466311.520    21466316.615          12.250  
 12  1  1  1 48  0.0000000  0  9G 1G 2G 3G 5G11G14G18G21G29
  17564165.093    13686332.986    24700985.717    24700996.597          10.750  
  17564102.346    13686285.046    24700943.822    24700954.891           9.500  
  -7050849.338    -5494163.757    24038513.815    24038521.418          10.750  
 -15299807.574   -11921920.402    20989148.584    20989153.010          12.250  
 -16426719.741   -12800023.587    22072695.867    22072701.759          12.000  
  -2266590.669    -1766171.019    24803204.052    24803213.486          10.000  
  -7899925.224    -6155786.708    20434880.826    20434884.612          12.750  
   5368321.149     4183096.931    22395065.515    22395071.986          12.000  
   4472552.426     3485096.041    21480688.127    21480693.424          12.250  
 12  1  1  1 48 30.0000000  0  9G 1G 2G 3G 5G11G14G18G21G29
  17647563.191    13751318.274    24716855.143    24716866.864          11.000  
  17647500.427    13751270.305    24716815.531    24716824.693          10.000  
  -7121561.379    -5549264.073    24025057.652    24025065.670          10.750  
 -15338927.182   -11952403.206    20981704.322    20981708.854          12.500  
 -16528171.729   -12879077.001    22053390.099    22053396.238          12.250  
  -2348097.017    -1829682.301    24787693.736    24787704.487          10.250  
  -7913146.823    -6166089.269    20432364.921    20432368.747          12.500  
   5447796.068     4245025.317    22410189.271    22410195.734          12.000  
   4548518.372     3544290.176    21495143.989    21495149.277          12.000  
 12  1  1  1 49  0.0000000  0  9G 1G 2G 3G 5G11G14G18G21G29
  17730915.006    13816267.615    24732716.669    24732729.457          11.250  
  17730852.344    13816219.630    24732676.321    24732686.359          10.250  
  -7192164.158    -5604279.163    24011622.470    24011629.935          11.000  
 -15377751.421   -11982655.859    20974316.554    20974320.866          12.250  
 -16629314.301   -12957889.294    22034142.957    22034149.145          12.000  
  -2429612.140    -1893200.486    24772181.783    24772191.906          11.000  
  -7926055.736    -6176148.169    20429908.484    20429912.233          12.500  
   5527636.720     4307238.702    22425382.742    22425388.970          12.000  
   4624897.875     3603806.558    21509678.669    21509683.690          12.250  
 12  1  1  1 49 30.0000000  0  9G 1G 2G 3G 5G11G14G18G21G29
  17814220.266    13881180.622    24748569.932    24748582.871          10.750  
  17814157.593    13881132.603    24748527.325    24748538.535          10.250  
  -7262657.680    -5659209.123    23998207.999    23998215.787          11.000  
 -15416280.658   -12012678.608    20966984.660    20966988.683          12.000  
 -16730144.739   -13036458.364    22014955.419    22014961.771          12.250  
  -2511132.984    -1956723.113    24756667.976    24756679.541          10.750  
  -7938650.540    -6185962.308    20427511.535    20427515.364          12.750  
   5607840.551     4369735.066    22440644.797    22440651.383          11.750  
   4701688.580     3663643.341    21524291.337    21524296.545          12.000  
 12  1  1  1 50  0.0000000  0  9G 1G 2G 3G 5G11G14G18G21G29
  17897478.480    13946056.943    24764413.842    24764427.321          10.500  
  17897415.769    13946008.921    24764371.502    24764383.466          10.500  
  -7333041.980    -5714053.967    23984814.471    23984822.631          11.250  
 -15454515.172   -12042471.717    20959708.491    20959713.076          12.250  
 -16830660.341   -13114782.160    21995827.967    21995833.768          12.250  
  -2592656.643    -2020247.909    24741154.291    24741165.671          11.000  
  -7950929.811    -6195530.575    20425174.852    20425178.778          12.500  
   5688404.994     4432512.450    22455975.672    22455982.370          11.500  
   4778888.076     3723798.678    21538981.986    21538987.161          12.000  
 12  1  1  1 50 30.0000000  0  9G 1G 2G 3G 5G11G14G18G21G29
  17980689.227    14010896.281    24780248.579    24780260.895          10.250  
  17980626.576    14010848.327    24780206.503    24780219.575          11.000  
  -7403317.163    -5768813.791    23971441.606    23971449.338          11.500  
 -15492455.291   -12072035.460    20952488.694    20952493.351          12.000  
 -16930858.482   -13192858.540    21976760.711    21976766.501          12.000  
  -2674179.966    -2083772.372    24725642.019    24725653.405          11.750  
  -7962892.091    -6204851.854    20422898.476    20422902.372          12.500  
   5769327.473     4495568.811    22471375.050    22471381.158          12.000  
   4856493.962     3784270.705    21553749.884    21553755.061          12.000  
 12  1  1  1 51  0.0000000  0  9G 1G 2G 3G 5G11G14G18G21G29
  18063852.158    14075698.327    24796073.527    24796085.756          10.250  
  18063789.450    14075650.412    24796031.056    24796042.724          11.000  
  -7473483.305    -5823488.658    23958089.195    23958097.047          11.250  
 -15530101.361   -12101370.056    20945325.097    20945329.587          12.000  
 -17030736.462   -13270685.462    21957754.622    21957760.111          12.250  
  -2755699.952    -2147294.287    24710128.578    24710139.040          10.250  
  -7974536.014    -6213925.057    20420682.705    20420686.659          12.500  
   5850605.433     4558902.167    22486841.664    22486848.099          11.750  
   4934503.874     3845057.539    21568594.952    21568600.035          12.250  
 12  1  1  1 51 30.0000000  0  9G 1G 2G 3G 5G11G14G18G21G29
  18146966.834    14140462.727    24811890.206    24811901.227          10.250  
  18146904.209    14140414.919    24811847.898    24811859.323          10.250  
  -7543540.476    -5878078.589    23944757.696    23944765.656          11.500  
 -15567453.702   -12130475.766    20938217.091    20938221.699          12.250  
 -17130291.598   -13348260.834    21938810.158    21938815.907          12.000  
  -2837213.589    -2210811.317    24694617.261    24694627.279          11.000  
  -7985860.110    -6222749.040    20418528.033    20418532.084          12.500  
   5932236.229     4622510.491    22502375.642    22502381.945          12.250  
   5012915.349     3906157.272    21583516.463    21583521.724          12.500  
 12  1  1  1 52  0.0000000  0  9G 1G 2G 3G 5G11G14G18G21G29
  18230032.897    14205189.319    24827697.167    24827708.021          10.000  
  18229970.181    14205141.460    24827654.796    24827666.143          10.500  
  -7613488.735    -5932583.668    23931446.933    23931454.776          11.500  
 -15604512.663   -12159352.876    20931164.887    20931169.491          12.250  
 -17229521.246   -13425582.588    21919927.239    21919933.349          12.250  
  -2918717.831    -2274320.947    24679107.314    24679118.569          11.000  
  -7996862.985    -6231322.742    20416434.143    20416438.195          12.500  
   6014217.353     4686391.731    22517975.908    22517982.408          12.500  
   5091725.943     3967568.006    21598513.331    21598518.869          12.000  
 12  1  1  1 52 30.0000000  0  9G 1G 2G 3G 5G11G14G18G21G29
  18313049.933    14269877.615    24843495.365    24843506.283          10.000  
  18312987.257    14269829.8761   24843455.386    24843464.867          10.500  
  -7683328.214    -5987003.963    23918156.937    23918164.536          11.500  
 -15641278.576   -12188001.615    20924168.716    20924173.188          12.250  
 -17328422.823   -13502648.629    21901107.022    21901112.878          12.250  
  -3000209.485    -2337820.829    24663599.812    24663611.235          10.250  
  -8007543.243    -6239645.034    20414402.042    20414405.856          12.500  
   6096546.140     4750543.915    22533643.039    22533649.547          12.500  
   5170933.217     4029287.852    21613586.169    21613591.685          12.000  
 12  1  1  1 53  0.0000000  0  9G 1G 2G 3G 5G11G14G18G21G29
  18396017.501    14334527.473    24859283.505    24859295.229          10.000  
  18395954.803    14334479.7211   24859243.165    24859253.443          10.250  
  -7753058.919    -6041339.529    23904887.239    23904895.564          11.000  
 -15677751.782   -12216422.284    20917228.158    20917232.507          12.250  
 -17426993.611   -13579456.951    21882349.354    21882355.144          12.250  
  -3081685.706    -2401308.599    24648094.727    24648106.167          10.500  
  -8017899.462    -6247714.833    20412431.267    20412435.018          12.500  
   6179220.017     4814965.019    22549375.390    22549381.835          12.250  
   5250534.677     4091314.848    21628734.008    21628739.080          12.000  
 12  1  1  1 53 30.0000000  0  9G 1G 2G 3G 5G11G14G18G21G29
  18478935.262    14399138.555    24875062.725    24875074.310          10.500  
  18478872.669    14399090.807    24875021.019    24875031.388          10.500  
  -7822681.023    -6095590.484    23891639.128    23891647.156          11.500  
 -15713932.642   -12244615.162    20910342.945    20910347.686          12.250  
 -17525230.959   -13656005.445    21863655.234    21863660.909          11.750  
  -3163143.322    -2464781.882    24632594.223    24632603.832          11.000  
  -8027930.251    -6255531.052    20410522.718    20410526.255          12.500  
   6262236.441     4879653.015    22565173.071    22565179.402          12.250  
   5330527.859     4153647.089    21643956.361    21643961.390          12.000  
 12  1  1  1 54  0.0000000  0  9G 1G 2G 3G 5G11G14G18G21G29
  18561802.990    14463710.627    24890831.762    24890845.321          10.500  
  18561740.413    14463662.849    24890790.033    24890800.081          11.000  
  -7892194.556    -6149756.803    23878410.927    23878419.271          11.250  
 -15749821.507   -12272580.513    20903513.568    20903518.199          12.500  
 -17623132.266   -13732292.121    21845025.322    21845031.079          12.000  
  -3244579.220    -2528238.316    24617096.649    24617106.900          11.000  
  -8037634.194    -6263092.573    20408675.924    20408679.591          12.750  
   6345592.790     4944605.877    22581035.315    22581041.704          12.250  
   5410910.297     4216282.654    21659252.223    21659257.598          12.000  
 12  1  1  1 54 30.0000000  0  9G 1G 2G 3G 5G11G14G18G21G29
  18644620.149    14528243.310    24906592.929    24906604.105          10.750  
  18644557.784    14528195.601    24906549.951    24906558.428          10.750  
  -7961599.588    -6203838.635    23865203.894    23865211.776          11.750  
 -15785418.721   -12300318.598    20896739.650    20896744.130          12.750  
 -17720694.946   -13808314.887    21826459.749    21826465.344          12.000  
  -3325990.378    -2591675.444    24601604.350    24601615.200          11.000  
  -8047009.910    -6270398.331    20406891.853    20406895.535          12.500  
   6429286.423     5009821.582    22596961.883    22596967.989          12.250  
   5491679.465     4279219.553    21674622.347    21674628.037          12.000  
 12  1  1  1 55  0.0000000  0  9G 1G 2G 3G 5G11G14G18G21G29
  18727386.528    14592736.353    24922343.179    24922354.368          10.750  
  18727324.086    14592688.695    24922300.450    24922309.599          10.750  
  -8030896.289    -6257836.016    23852016.930    23852024.873          12.000  
 -15820724.669   -12327829.707    20890021.371    20890025.845          12.500  
 -17817916.339   -13884071.758    21807959.113    21807964.637          11.750  
  -3407373.690    -2655090.860    24586117.757    24586128.833          11.000  
  -8056056.012    -6277447.264    20405170.419    20405174.209          12.500  
   6513314.754     5075298.071    22612951.710    22612958.461          12.000  
   5572832.843     4342455.829    21690065.329    21690070.950          12.000  
 12  1  1  1 55 30.0000000  0  9G 1G 2G 3G 5G11G14G18G21G29
  18810101.701    14657189.574    24938083.300    24938093.914           9.750  
  18810039.298    14657141.892    24938038.702    24938051.379          10.250  
  -8100084.736    -6311749.037    23838850.746    23838858.167          11.750  
 -15855739.692   -12355114.126    20883358.164    20883362.632          12.250  
 -17914793.857   -13959560.644    21789523.855    21789529.277          12.000  
  -3488726.053    -2718482.203    24570636.281    24570647.687          11.000  
  -8064771.090    -6284238.237    20403512.018    20403515.846          12.750  
   6597675.179     5141033.327    22629005.491    22629011.584          12.000  
   5654367.904     4405989.518    21705581.023    21705586.782          12.250  
 12  1  1  1 56  0.0000000  0  9G 1G 2G 3G 5G11G14G18G21G29
  18892765.468    14721602.586    24953812.951    24953823.742           9.500  
  18892703.058    14721554.989    24953770.570    24953782.581          10.500  
  -8169165.018    -6365577.772    23825705.216    23825712.934          11.000  
 -15890464.165   -12382172.182    20876750.217    20876754.548          12.250  
 -18011324.882   -14034779.565    21771154.632    21771159.914          11.750  
  -3570044.348    -2781847.032    24555162.856    24555173.151          11.000  
  -8073153.759    -6290770.207    20401916.955    20401920.487          12.500  
   6682365.098     5207025.335    22645121.688    22645128.134          12.000  
   5736282.116     4469818.658    21721168.843    21721174.652          12.250  
 12  1  1  1 56 30.0000000  0  9G 1G 2G 3G 5G11G14G18G21G29
  18975377.398    14785975.301    24969534.237    24969546.704          10.000  
  18975315.048    14785927.744    24969491.397    24969503.465          10.500  
  -8238137.206    -6419322.325    23812580.383    23812587.830          11.000  
 -15924898.492   -12409004.109    20870197.809    20870201.778          12.500  
 -18107506.856   -14109726.475    21752851.558    21752857.010          12.000  
  -3651325.612    -2845182.925    24539695.128    24539706.104          11.500  
  -8081202.653    -6297042.097    20400385.074    20400388.811          12.500  
   6767381.880     5273272.051    22661299.676    22661305.973          11.750  
   5818572.923     4533941.248    21736828.259    21736833.972          12.250  
 12  1  1  1 57  0.0000000  0  9G 1G 2G 3G 5G11G14G18G21G29
  19057937.124    14850307.369    24985243.747    24985256.454          10.250  
  19057874.832    14850259.843    24985202.410    24985215.150          10.250  
  -8307001.513    -6472982.736    23799475.761    23799483.492          11.000  
 -15959043.000   -12435610.226    20863700.237    20863704.642          12.250  
 -18203337.191   -14184399.389    21734615.548    21734621.227          11.750  
  -3732566.629    -2908487.487    24524234.958    24524245.704          11.000  
  -8088916.386    -6303052.813    20398917.170    20398920.909          12.500  
   6852722.915     5339771.435    22677539.439    22677545.801          11.750  
   5901237.756     4598355.279    21752559.031    21752564.322          12.500  
 12  1  1  1 57 30.0000000  0  9G 1G 2G 3G 5G11G14G18G21G29
  19140444.534    14914598.543    25000944.032    25000956.300           9.750  
  19140382.176    14914551.097    25000902.456    25000914.685          10.000  
  -8375757.925    -6526559.090    23786391.187    23786399.058          11.500  
 -15992898.096   -12461990.791    20857257.836    20857262.570          12.250  
 -18298813.291   -14258796.288    21716446.758    21716452.592          12.000  
  -3813764.312    -2971758.296    24508783.304    24508795.220          11.250  
  -8096293.584    -6308801.299    20397513.494    20397517.402          12.500  
   6938385.593     5406521.439    22693840.597    22693847.022          11.250  
   5984274.042     4663058.766    21768360.645    21768365.972          12.500  
 12  1  1  1 58  0.0000000  0 10G 1G 2G 3G 5G11G13G14G18G21G29
  19222899.094    14978848.707    25016635.441    25016646.885          10.000  
  19222836.770    14978801.193    25016594.508    25016603.900          10.750  
  -8444406.560    -6580051.512    23773327.864    23773335.841          11.250  
 -16026464.159   -12488146.158    20850870.522    20850875.100          12.250  
 -18393932.615   -14332915.151    21698346.144    21698351.876          12.000  
         0.362           0.539    25219537.699    25219548.434          10.000  
  -3894915.501    -3034992.873    24493340.096    24493351.959          11.000  
  -8103332.895    -6314286.495    20396173.542    20396177.800          12.750  
   7024367.280     5473520.046    22710202.834    22710209.347          11.000  
   6067679.205     4728049.680    21784232.463    21784237.790          12.250  
 12  1  1  1 58 30.0000000  0 10G 1G 2G 3G 5G11G13G14G18G21G29
  19305300.625    15043057.499    25032317.439    25032328.247          10.500  
  19305238.376    15043009.952    25032273.979    25032285.755          10.250  
  -8512947.609    -6633460.051    23760285.057    23760293.152          11.000  
 -16059741.574   -12514076.607    20844538.090    20844542.406          12.250  
 -18488692.589   -14406754.030    21680313.891    21680319.291          12.000  
    -95110.911      -74112.136    25201439.690    25201447.861          10.000  
  -3976017.116    -3098188.804    24477907.596    24477919.075          11.000  
  -8110032.933    -6319507.325    20394898.573    20394902.900          12.750  
   7110665.387     5540765.167    22726624.724    22726631.824          11.000  
   6151450.648     4793325.993    21800173.446    21800178.789          12.250  
 12  1  1  1 59  0.0000000  0 10G 1G 2G 3G 5G11G13G14G18G21G29
  19387648.797    15107224.749    25047987.557    25047997.553          10.000  
  19387586.610    15107177.220    25047945.049    25047956.093          10.000  
  -8581381.129    -6686784.815    23747263.080    23747270.596          10.500  
 -16092730.728   -12539782.436    20838260.471    20838264.896          12.500  
 -18583090.670   -14480310.905    21662350.406    21662356.224          12.000  
   -189987.367     -148041.802    25183384.763    25183393.096          10.000  
  -4057065.985    -3161343.633    24462483.800    24462495.862          10.750  
  -8116392.359    -6324462.741    20393688.296    20393692.672          12.500  
   7197277.262     5608254.784    22743106.535    22743113.433          11.500  
   6235585.748     4858885.676    21816184.097    21816189.445          12.250  
 12  1  1  1 59 30.0000000  0 10G 1G 2G 3G 5G11G13G14G18G21G29
  19469943.459    15171350.218    25063648.515    25063658.772          10.750  
  19469881.176    15171302.711    25063605.286    25063618.067          10.250  
  -8649707.223    -6740025.882    23734260.742    23734268.665          10.500  
 -16125431.998   -12565263.957    20832037.396    20832041.748          12.500  
 -18677124.323   -14553583.821    21644456.420    21644462.054          12.250  
   -284626.258     -221786.512    25165375.432    25165384.158          10.250  
  -4138059.038    -3224454.956    24447072.624    24447083.129          11.000  
  -8122409.835    -6329151.680    20392543.308    20392547.586          12.500  
   7284200.300     5675986.896    22759647.224    22759654.154          11.250  
   6320081.896     4924726.687    21832263.418    21832269.089          12.500  
 12  1  1  2  0  0.0000000  0 10G 1G 2G 3G 5G11G13G14G18G21G29
  19552184.177    15235433.700    25079297.871    25079307.331          10.250  
  19552121.998    15235386.206    25079255.343    25079267.200           9.750  
  -8717926.045    -6793183.371    23721278.871    23721287.011          11.250  
 -16157845.817   -12590521.460    20825869.423    20825873.699          12.250  
 -18770791.047   -14626570.791    21626632.413    21626637.965          12.250  
   -379025.274     -295344.115    25147410.825    25147420.262          10.500  
  -4218993.152    -3287520.385    24431670.751    24431681.882          11.250  
  -8128083.981    -6333573.102    20391463.861    20391467.814          12.500  
   7371431.865     5743959.421    22776246.928    22776253.855          11.250  
   6404936.429     4990846.988    21848410.776    21848416.817          12.000  
 12  1  1  2  0 30.0000000  0 10G 1G 2G 3G 5G11G13G14G18G21G29
  19634370.870    15299474.917    25094937.858    25094949.449          10.000  
  19634308.599    15299427.527    25094896.409    25094907.046          10.250  
  -8786037.729    -6846257.339    23708317.679    23708325.120          11.250  
 -16189972.561   -12615555.286    20819755.916    20819760.220          12.250  
 -18864088.284   -14699269.860    21608878.480    21608883.826          12.250  
   -473181.557     -368712.649    25129494.747    25129503.843          10.000  
  -4299865.144    -3350537.366    24416281.863    24416292.465          10.750  
  -8133413.454    -6337725.958    20390449.621    20390453.743          12.500  
   7458969.346     5812170.319    22792904.969    22792911.893          11.500  
   6490146.767     5057244.528    21864625.738    21864631.638          12.000  
 12  1  1  2  1  0.0000000  0 10G 1G 2G 3G 5G11G13G14G18G21G29
  19716503.116    15363473.802    25110566.527    25110580.271          10.250  
  19716440.896    15363426.519    25110524.557    25110535.738          10.500  
  -8854042.409    -6899247.923    23695376.614    23695384.035          11.500  
 -16221812.649   -12640365.724    20813696.691    20813701.398          12.250  
 -18957013.542   -14771679.080    21591195.135    21591200.663          12.250  
   -567092.578     -441890.098    25111623.815    25111633.781          10.250  
  -4380671.944    -3413503.538    24400904.871    24400915.412          10.250  
  -8138396.922    -6341609.214    20389501.435    20389505.319          12.750  
   7546810.098     5880617.528    22809620.468    22809627.562          11.750  
   6575710.215     5123917.212    21880908.061    21880914.057          12.000  
 12  1  1  2  1 30.0000000  0 10G 1G 2G 3G 5G11G13G14G18G21G29
  19798580.627    15427430.1791   25126186.595    25126197.697          10.750  
  19798518.595    15427382.797    25126143.731    25126155.341          10.500  
  -8921940.111    -6952155.174    23682455.957    23682463.885          11.500  
 -16253366.458   -12664953.118    20807692.060    20807696.745          12.000  
 -19049564.324   -14843796.507    21573583.236    21573588.554          12.250  
   -660755.812     -514874.421    25093798.932    25093810.880          10.250  
  -4461410.298    -3476416.393    24385540.566    24385551.405          10.250  
  -8143033.090    -6345221.822    20388619.321    20388623.045          12.500  
   7634951.531     5949299.000    22826393.479    22826400.859          11.750  
   6661624.128     5190863.002    21897257.450    21897262.924          12.000  
 12  1  1  2  2  0.0000000  0 10G 1G 2G 3G 5G11G13G14G18G21G29
  19880603.323    15491343.696    25141795.322    25141806.638          10.000  
  19880541.190    15491296.429    25141751.919    25141764.288           9.500  
  -8989731.023    -7004979.260    23669555.912    23669563.400          12.000  
 -16284634.431   -12689317.752    20801742.018    20801746.607          12.250  
 -19141738.114   -14915620.172    21556043.537    21556048.499          12.500  
   -754168.577     -587663.490    25076024.110    25076034.330          10.500  
  -4542077.085    -3539273.468    24370188.964    24370200.357          10.750  
  -8147320.571    -6348562.739    20387803.398    20387807.385          12.750  
   7723390.995     6018212.717    22843223.058    22843230.607          11.500  
   6747885.805     5258079.762    21913672.611    21913678.054          12.000  
 12  1  1  2  2 30.0000000  0 10G 1G 2G 3G 5G11G13G14G18G21G29
  19962570.877    15555214.255    25157393.350    25157403.965          10.000  
  19962508.665    15555167.031    25157348.567    25157362.951           9.750  
  -9057415.273    -7057720.199    23656676.675    23656683.478          11.500  
 -16315616.948   -12713459.974    20795846.151    20795850.649          12.500  
 -19233532.474   -14987148.176    21538575.530    21538580.462          12.250  
   -847328.246     -660255.463    25058295.835    25058307.345          10.500  
  -4622669.100    -3602072.329    24354853.540    24354863.301          10.750  
  -8151258.103    -6351630.946    20387054.208    20387058.003          12.500  
   7812125.837     6087356.626    22860108.628    22860116.190          11.750  
   6834492.648     5325565.465    21930153.195    21930158.663          12.000  
 12  1  1  2  3  0.0000000  0 10G 1G 2G 3G 5G11G13G14G18G21G29
  20044483.037    15619041.666    25172979.552    25172992.053          10.000  
  20044420.987    15618994.490    25172934.850    25172949.288          10.250  
  -9124993.036    -7110378.106    23643817.218    23643823.968          11.500  
 -16346314.427   -12737380.111    20790004.893    20790008.770          12.500  
 -19324944.887   -15058378.560    21521180.261    21521185.291          12.250  
   -940232.223     -732648.142    25040617.735    25040628.555          10.000  
  -4703183.257    -3664810.492    24339532.071    24339541.518          10.750  
  -8154844.317    -6354425.424    20386371.728    20386375.344          12.750  
   7901153.478     6156728.663    22877050.132    22877057.479          12.000  
   6921441.903     5393317.997    21946699.164    21946704.528          12.000  
 12  1  1  2  3 30.0000000  0 10G 1G 2G 3G 5G11G13G14G18G21G29
  20126339.555    15682825.891    25188560.471    25188571.127          10.250  
  20126277.671    15682778.662    25188510.989    25188526.184           9.750  
  -9192464.416    -7162953.134    23630977.569    23630984.529          11.750  
 -16376727.322   -12761078.460    20784217.662    20784221.525          12.500  
 -19415972.914   -15129309.418    21503858.340    21503863.469          12.250  
  -1032877.858     -804839.600    25022987.437    25022997.746          10.250  
  -4783616.322    -3727485.570    24324225.954    24324235.412          10.500  
  -8158077.943    -6356945.143    20385756.211    20385759.913          12.750  
   7990471.240     6226326.769    22894047.051    22894054.625          12.000  
   7008730.872     5461335.231    21963309.912    21963314.981          11.750  
 12  1  1  2  4  0.0000000  0  8G 3G 5G11G13G14G18G21G29
  -9259829.469    -7215445.354    23618158.192    23618165.316          11.500  
 -16406856.021   -12784555.352    20778484.391    20778488.331          12.750  
 -19506614.127   -15199938.862    21486609.572    21486614.959          12.000  
  -1125262.665     -876827.730    25005407.218    25005418.003          10.250  
  -4863965.185    -3790094.982    24308936.093    24308945.713          11.000  
  -8160957.650    -6359189.099    20385208.285    20385212.116          12.750  
   8080076.525     6296148.950    22911098.141    22911105.775          11.500  
   7096356.853     5529615.078    21979984.282    21979990.079          12.000  
 12  1  1  2  4 30.0000000  0  8G 3G 5G11G13G14G18G21G29
  -9327088.428    -7267854.880    23605359.263    23605366.249          11.750  
 -16436700.933   -12807811.126    20772805.319    20772809.010          12.750  
 -19596866.046   -15270264.982    21469435.109    21469440.594          12.000  
  -1217383.986     -948610.630    24987877.008    24987886.830           9.500  
  -4944226.727    -3852636.262    24293662.451    24293672.757          10.500  
  -8163482.151    -6361156.261    20384728.121    20384731.982          12.500  
   8169966.738     6366193.131    22928204.594    22928211.390          11.500  
   7184317.115     5598155.418    21996722.619    21996728.533          12.000  
 12  1  1  2  5  0.0000000  0  8G 3G 5G11G13G14G18G21G29
  -9394241.364    -7320181.804    23592580.184    23592587.685          11.750  
 -16466262.520   -12830846.129    20767179.675    20767183.747          12.750  
 -19686726.254   -15340285.870    21452335.167    21452340.569          12.250  
  -1309239.133    -1020186.052    24970398.849    24970407.414          10.250  
  -5024397.650    -3915107.005    24278406.443    24278416.713          10.750  
  -8165650.156    -6362845.623    20384315.546    20384319.393          12.250  
   8260139.241     6436457.238    22945363.822    22945370.993          11.750  
   7272608.976     5666954.099    22013524.089    22013530.577          12.000  
 12  1  1  2  5 30.0000000  0  8G 3G 5G11G13G14G18G21G29
  -9461288.468    -7372426.237    23579821.125    23579828.457          11.500  
 -16495541.192   -12853660.669    20761607.946    20761612.153          12.500  
 -19776192.355   -15409999.641    21435310.262    21435315.685          12.000  
  -1400825.650    -1091552.066    24952969.881    24952979.764          10.750  
  -5104474.884    -3977504.694    24263168.218    24263178.437          10.500  
  -8167460.388    -6364256.197    20383971.306    20383974.976          12.500  
   8350591.331     6506939.261    22962575.844    22962583.554          11.750  
   7361229.648     5736009.039    22030388.270    22030394.506          12.000  
 12  1  1  2  6  0.0000000  0  8G 3G 5G11G13G14G18G21G29
  -9528229.862    -7424588.312    23567082.768    23567089.905          11.500  
 -16524537.370   -12876255.093    20756090.032    20756094.386          12.500  
 -19865261.929   -15479404.437    21418360.894    21418366.194          12.250  
  -1492140.754    -1162706.731    24935592.984    24935603.419          10.500  
  -5184455.134    -4039826.882    24247948.225    24247958.510          10.500  
  -8168911.558    -6365387.010    20383695.200    20383699.036          12.750  
   8441320.466     6577637.130    22979841.200    22979848.777          12.000  
   7450176.407     5805318.065    22047314.652    22047320.815          12.000  
 12  1  1  2  6 30.0000000  0  8G 3G 5G11G13G14G18G21G29
  -9595065.700    -7476668.108    23554364.509    23554371.353          11.500  
 -16553251.495   -12898629.721    20750625.955    20750630.400          12.500  
 -19953932.593   -15548498.401    21401487.629    21401492.855          12.250  
  -1583181.961    -1233647.940    24918269.316    24918279.050          11.000  
  -5264335.265    -4102070.982    24232747.641    24232757.822          11.000  
  -8170002.381    -6366237.028    20383487.503    20383491.285          12.750  
   8532323.979     6648548.806    22997158.886    22997166.080          11.750  
   7539446.520     5874879.052    22064302.412    22064308.252          12.000  
 12  1  1  2  7  0.0000000  0  8G 3G 5G11G13G14G18G21G29
  -9661796.082    -7528665.766    23541665.985    23541673.364          12.000  
 -16581683.990   -12920784.919    20745215.583    20745219.905          12.500  
 -20042201.929   -15617279.646    21384690.450    21384695.494          12.250  
  -1673946.758    -1304373.633    24900998.931    24901007.085          10.500  
  -5344112.122    -4164234.635    24217566.493    24217576.274          11.000  
  -8170731.615    -6366805.286    20383348.662    20383352.590          12.500  
   8623599.273     6719672.266    23014527.889    23014535.099          11.500  
   7629037.194     5944689.837    22081350.771    22081356.618          12.250  
 12  1  1  2  7 30.0000000  0  8G 3G 5G11G13G14G18G21G29
  -9728421.175    -7580581.380    23528987.742    23528995.129          11.750  
 -16609835.305   -12942721.012    20739858.263    20739862.899          12.500  
 -20130067.598   -15685746.344    21367969.959    21367975.420          12.500  
  -1764432.301    -1374881.863    24883779.116    24883787.035          10.250  
  -5423782.435    -4226315.271    24202406.138    24202415.145          10.750  
  -8171097.996    -6367090.800    20383278.816    20383282.942          12.500  
   8715143.702     6791005.465    23031948.640    23031956.019          11.750  
   7718945.679     6014748.260    22098459.225    22098465.741          12.250  
 12  1  1  2  8  0.0000000  0  8G 3G 5G11G13G14G18G21G29
  -9794941.089    -7632415.048    23516329.006    23516336.697          11.500  
 -16637705.899   -12964438.339    20734554.873    20734559.300          12.750  
 -20217527.231   -15753896.646    21351327.028    21351332.032          12.500  
  -1854636.133    -1445170.623    24866612.552    24866622.440          10.500  
  -5503343.051    -4288310.418    24187265.319    24187275.575          10.750  
  -8171100.266    -6367092.600    20383278.517    20383282.458          12.500  
   8806954.648     6862546.301    23049419.403    23049427.003          11.500  
   7809169.203     6085052.143    22115628.796    22115634.688          12.000  
 12  1  1  2  8 30.0000000  0  8G 3G 5G11G13G14G18G21G29
  -9861356.042    -7684166.931    23503690.572    23503697.903          11.500  
 -16665296.160   -12985937.263    20729304.464    20729308.901          12.750  
 -20304578.465   -15821728.720    21334761.451    21334766.820          12.500  
  -1944555.769    -1515237.768    24849501.473    24849510.652          10.000  
  -5582790.785    -4350217.609    24172146.258    24172157.053          11.250  
  -8170737.197    -6366809.689    20383347.396    20383351.819          12.750  
   8899029.498     6934292.776    23066941.271    23066948.201          11.750  
   7899704.962     6155599.333    22132857.106    22132863.446          12.250  
 12  1  1  2  9  0.0000000  0  8G 3G 5G11G13G14G18G21G29
  -9927666.151    -7735837.101    23491071.981    23491079.521          11.500  
 -16692606.579   -13007218.107    20724107.556    20724111.995          12.500  
 -20391218.976   -15889240.747    21318274.474    21318279.522          12.250  
  -2034188.445    -1585081.356    24832444.521    24832453.823           9.750  
  -5662122.437    -4412034.353    24157049.497    24157060.276          11.000  
  -8170007.531    -6366241.147    20383486.102    20383490.517          12.750  
   8991365.651     7006242.887    23084512.685    23084519.495          11.250  
   7990550.179     6226387.672    22150144.729    22150151.382          12.000  
 12  1  1  2  9 30.0000000  0  8G 3G 5G11G13G14G18G21G29
  -9993871.562    -7787425.682    23478473.707    23478481.416          11.000  
 -16719637.584   -13028281.232    20718963.611    20718968.147          12.750  
 -20477446.441   -15956430.922    21301865.751    21301870.964          12.500  
  -2123531.596    -1654699.397    24815443.419    24815452.596          10.250  
  -5741334.722    -4473758.111    24141976.944    24141986.249          11.250  
  -8168910.045    -6365385.977    20383695.263    20383699.016          12.750  
   9083960.444     7078394.531    23102132.347    23102139.844          11.500  
   8081702.001     6297414.951    22167490.543    22167497.076          12.000  
 12  1  1  2 10  0.0000000  0  8G 3G 5G11G13G14G18G21G29
 -10059972.433    -7838932.788    23465895.215    23465902.798          11.250  
 -16746389.618   -13049126.970    20713873.036    20713877.228          12.750  
 -20563258.536   -16023297.426    21285535.935    21285541.636          12.500  
  -2212582.728    -1724089.885    24798497.925    24798506.959          10.750  
  -5820424.537    -4535386.393    24126926.785    24126936.016          11.000  
  -8167443.527    -6364243.262    20383974.584    20383978.124          12.500  
   9176811.313     7150745.700    23119801.146    23119809.066          11.250  
   8173157.720     6368678.987    22184893.851    22184900.442          12.000  
 12  1  1  2 10 30.0000000  0  8G 3G 5G11G13G14G18G21G29
 -10125968.886    -7890358.557    23453336.282    23453344.119          11.500  
 -16772863.162   -13069755.691    20708835.406    20708839.330          12.750  
 -20648652.957   -16089838.469    21269286.153    21269291.308          12.500  
  -2301339.235    -1793250.774    24781607.659    24781617.733          10.000  
  -5899388.611    -4596916.734    24111900.416    24111909.840          11.250  
  -8165606.741    -6362812.021    20384324.042    20384327.627          12.750  
   9269915.585     7223294.348    23137518.228    23137526.639          11.250  
   8264914.469     6440177.576    22202354.872    22202361.600          12.000  
 12  1  1  2 11  0.0000000  0  8G 3G 5G11G13G14G18G21G29
 -10191861.111    -7941703.090    23440797.479    23440805.046          11.250  
 -16799058.623   -13090167.736    20703850.758    20703854.480          12.750  
 -20733627.424   -16156052.294    21253115.996    21253121.024          12.500  
  -2389798.550    -1862179.986    24764774.191    24764784.144          10.250  
  -5978223.756    -4658346.598    24096897.794    24096907.845          11.000  
  -8163398.517    -6361091.337    20384744.432    20384747.904          12.500  
   9363270.723     7296038.427    23155283.705    23155291.527          11.000  
   8356969.397     6511908.534    22219872.363    22219879.163          12.000  
 12  1  1  2 11 30.0000000  0  8G 3G 5G11G13G14G18G21G29
 -10257649.268    -7992966.531    23428278.399    23428286.393          11.250  
 -16824976.495   -13110363.462    20698918.260    20698922.749          12.500  
 -20818179.676   -16221937.094    21237026.178    21237031.281          12.500  
  -2477957.980    -1930875.670    24747998.697    24748007.437          10.750  
  -6056926.764    -4719673.504    24081921.168    24081931.332          11.000  
  -8160817.622    -6359080.272    20385235.378    20385239.115          12.500  
   9456874.050     7368975.922    23173096.125    23173103.689          11.250  
   8449319.693     6583869.669    22237446.314    22237452.714          11.750  
 12  1  1  2 12  0.0000000  0  8G 3G 5G11G13G14G18G21G29
 -10323333.446    -8044148.985    23415779.104    23415786.942          10.750  
 -16850617.187   -13130343.220    20694039.076    20694043.420          12.250  
 -20902307.442   -16287491.121    21221017.374    21221022.098          12.250  
  -2565815.081    -1999335.729    24731279.402    24731288.302          11.000  
  -6135494.372    -4780894.892    24066970.512    24066979.663          11.250  
  -8157862.850    -6356777.884    20385797.622    20385801.430          12.500  
   9550722.994     7442104.798    23190955.094    23190962.457          11.500  
   8541962.562     6656058.746    22255075.718    22255082.439          11.500  
 12  1  1  2 12 30.0000000  0  8G 3G 5G11G13G14G18G21G29
 -10388913.880    -8095250.553    23403299.750    23403307.705          10.750  
 -16875981.173   -13150107.373    20689212.453    20689217.151          12.250  
 -20986008.453   -16352712.638    21205089.508    21205094.349          12.250  
  -2653367.288    -2067558.114    24714618.728    24714628.008          11.000  
  -6213923.415    -4842008.325    24052045.094    24052055.934          11.000  
  -8154533.056    -6354183.256    20386431.243    20386435.037          12.500  
   9644814.921     7515423.019    23208860.000    23208867.839          11.000  
   8634895.113     6728473.561    22272760.457    22272767.009          11.750  
 12  1  1  2 13  0.0000000  0  8G 3G 5G11G13G14G18G21G29
 -10454390.697    -8146271.389    23390839.698    23390847.518          11.000  
 -16901068.917   -13169656.269    20684438.433    20684443.232          12.500  
 -21069280.478   -16417599.872    21189243.475    21189248.172          12.500  
  -2740611.948    -2135540.951    24698016.493    24698025.457          11.000  
  -6292210.669    -4903011.225    24037148.216    24037157.673          11.000  
  -8150827.060    -6351295.474    20387136.375    20387140.293          12.500  
   9739147.250     7588928.568    23226811.224    23226819.110          11.250  
   8728114.512     6801111.882    22290499.347    22290506.143          11.750  
 12  1  1  2 13 30.0000000  0  8G 3G 5G11G13G14G18G21G29
 -10519764.024    -8197211.578    23378399.729    23378407.213          11.000  
 -16925880.891   -13188990.267    20679717.063    20679721.233          12.500  
 -21152121.298   -16482151.120    21173479.439    21173484.003          12.500  
  -2827546.552    -2203282.176    24681473.945    24681483.071          11.000  
  -6370352.858    -4963901.159    24022278.188    24022288.097          11.000  
  -8146743.667    -6348113.640    20387913.430    20387917.589          12.500  
   9833717.395     7662619.417    23244807.568    23244815.009          11.750  
   8821617.885     6873971.508    22308292.631    22308299.277          11.750  
 12  1  1  2 14  0.0000000  0  8G 3G 5G11G13G14G18G21G29
 -10585034.038    -8248071.291    23365979.269    23365986.579          11.500  
 -16950417.518   -13208109.723    20675047.659    20675052.163          12.750  
 -21234528.713   -16546364.645    21157797.590    21157802.528          12.500  
  -2914168.538    -2270779.789    24664990.653    24664999.170          10.750  
  -6448346.852    -5024675.584    24007435.943    24007445.717          11.000  
  -8142281.719    -6344636.843    20388762.602    20388766.704          12.500  
   9928522.729     7736493.534    23262848.695    23262856.200          11.250  
   8915402.407     6947050.200    22326139.392    22326146.176          11.750  
 12  1  1  2 14 30.0000000  0  8G 3G 5G11G13G14G18G21G29
 -10650200.906    -8298850.601    23353578.580    23353585.390          11.500  
 -16974679.288   -13227015.008    20670430.779    20670435.342          12.750  
 -21316500.527   -16610238.724    21142198.797    21142203.889          12.250  
  -3000475.376    -2338031.799    24648567.733    24648575.505          10.500  
  -6526189.369    -5085331.929    23992622.458    23992632.778          11.000  
  -8137440.132    -6340864.179    20389683.935    20389687.962          12.500  
  10023560.688     7810548.926    23280933.877    23280941.833          11.500  
   9009465.204     7020345.727    22344039.239    22344045.728          12.000  
 12  1  1  2 15  0.0000000  0  8G 3G 5G11G13G14G18G21G29
 -10715264.744    -8349549.690    23341197.020    23341204.446          11.500  
 -16998666.666   -13245706.466    20665866.261    20665870.776          12.750  
 -21398034.542   -16673771.678    21126683.330    21126688.526          12.500  
  -3086464.506    -2405036.249    24632203.458    24632212.648          11.000  
  -6603877.210    -5145867.757    23977839.681    23977849.520          11.750  
  -8132217.689    -6336794.760    20390677.561    20390681.902          12.500  
  10118828.648     7884783.540    23299062.887    23299070.128          11.250  
   9103803.405     7093855.839    22361991.645    22361998.119          12.000  
 12  1  1  2 15 30.0000000  0  8G 3G 5G11G13G14G18G21G29
 -10780225.811    -8400168.650    23328835.254    23328842.563          11.750  
 -17022380.117   -13264184.477    20661353.644    20661358.181          12.500  
 -21479128.621   -16736961.802    21111251.346    21111256.451          12.500  
  -3172133.385    -2471791.198    24615900.629    24615909.748          11.000  
  -6681407.112    -5206280.563    23963086.587    23963095.770          11.500  
  -8126613.272    -6332427.707    20391744.037    20391748.215          12.750  
  10214324.009     7959195.367    23317235.039    23317242.366          11.500  
   9198414.099     7167578.313    22379995.376    22380002.058          12.000  
 12  1  1  2 16  0.0000000  0  8G 3G 5G11G13G14G18G21G29
 -10845084.185    -8450707.594    23316493.392    23316500.014          11.500  
 -17045820.095   -13282449.408    20656893.219    20656897.817          12.250  
 -21559780.586   -16799807.432    21095904.009    21095908.801          12.250  
  -3257479.497    -2538294.582    24599660.235    24599668.722          10.500  
  -6758775.838    -5266567.771    23948363.223    23948372.983          11.500  
  -8120625.788    -6327762.148    20392883.572    20392887.570          12.750  
  10310044.225     8033782.404    23335450.333    23335457.876          11.250  
   9293294.430     7241510.865    22398050.556    22398057.199          11.750  
 12  1  1  2 16 30.0000000  0  8G 3G 5G11G13G14G18G21G29
 -10909840.060    -8501166.648    23304170.081    23304177.565          11.750  
 -17068987.072   -13300501.591    20652484.573    20652489.319          12.500  
 -21639988.301   -16862306.905    21080640.907    21080645.541          12.500  
  -3342500.242    -2604544.498    24583480.474    24583489.270          11.000  
  -6835980.185    -5326726.892    23933671.401    23933680.580          11.000  
  -8114254.082    -6322797.207    20394096.203    20394100.301          12.750  
  10405986.716     8108542.607    23353707.192    23353715.374          11.500  
   9388441.494     7315651.279    22416156.355    22416163.300          11.750  
 12  1  1  2 17  0.0000000  0  8G 3G 5G11G13G14G18G21G29
 -10974493.585    -8551545.953    23291866.897    23291874.563          12.000  
 -17091881.534   -13318341.435    20648128.112    20648132.531          12.750  
 -21719749.625   -16924458.542    21065462.648    21065467.272          12.250  
  -3427193.180    -2670538.968    24567363.612    24567373.335          11.000  
  -6913016.932    -5386755.433    23919012.325    23919021.166          11.000  
  -8107497.063    -6317532.038    20395381.911    20395385.944          12.750  
  10502148.884     8183473.997    23372006.543    23372015.337          11.500  
   9483852.392     7389997.274    22434312.473    22434319.542          12.000  
 12  1  1  2 17 30.0000000  0  8G 3G 5G11G13G14G18G21G29
 -11039044.887    -8601845.643    23279583.899    23279590.519          12.250  
 -17114503.904   -13335969.256    20643823.244    20643827.557          12.750  
 -21799062.474   -16986260.718    21050370.026    21050374.571          12.500  
  -3511555.732    -2736276.006    24551310.132    24551320.343          10.500  
  -6989882.843    -5446650.837    23904384.887    23904394.219          11.000  
  -8100353.641    -6311965.767    20396741.180    20396745.201          12.750  
  10598528.136     8258574.525    23390347.337    23390355.991          11.000  
   9579524.250     7464546.602    22452518.293    22452525.566          11.750  
 12  1  1  2 18  0.0000000  0  8G 3G 5G11G13G14G18G21G29
 -11103494.181    -8652065.814    23267319.760    23267326.307          12.000  
 -17136854.710   -13353385.460    20639569.845    20639574.636          12.500  
 -21877924.751   -17047711.777    21035362.920    21035367.618          12.500  
  -3595585.435    -2801753.620    24535320.164    24535329.684          10.750  
  -7066574.748    -5506410.626    23889791.108    23889800.425          11.000  
  -8092822.739    -6306097.544    20398174.106    20398178.344          12.750  
  10695121.919     8333842.255    23408728.397    23408736.643          11.250  
   9675454.156     7539297.000    22470773.588    22470780.828          11.750  
 12  1  1  2 18 30.0000000  0  8G 3G 5G11G13G14G18G21G29
 -11167841.611    -8702206.652    23255074.739    23255081.116          12.000  
 -17158934.380   -13370590.389    20635368.420    20635373.045          12.500  
 -21956334.343   -17108810.113    21020441.986    21020446.794          12.500  
  -3679279.718    -2866969.956    24519394.112    24519402.535          10.750  
  -7143089.282    -5566032.276    23875230.514    23875240.232          11.250  
  -8084903.256    -6299926.533    20399681.192    20399685.644          13.000  
  10791927.705     8409275.149    23427150.366    23427158.361          11.000  
   9771639.183     7614246.220    22489076.737    22489084.040          11.500  
 12  1  1  2 19  0.0000000  0  8G 3G 5G11G13G14G18G21G29
 -11232087.342    -8752268.206    23242849.092    23242855.142          11.750  
 -17180743.387   -13387584.440    20631218.156    20631222.753          12.750  
 -22034289.197   -17169554.119    21005607.824    21005612.657          12.250  
  -3762636.118    -2931922.955    24503532.090    24503540.705          10.750  
  -7219423.332    -5625513.251    23860704.580    23860713.864          11.000  
  -8076594.131    -6293451.908    20401262.693    20401266.911          12.750  
  10888942.857     8484871.194    23445611.504    23445620.220          11.000  
   9868076.428     7689391.951    22507428.142    22507435.680          11.250  
 12  1  1  2 19 30.0000000  0  8G 3G 5G11G13G14G18G21G29
 -11296231.536    -8802250.641    23230642.773    23230649.095          12.000  
 -17202282.233   -13404367.957    20627119.487    20627124.022          12.500  
 -22111787.280   -17229942.181    20990860.387    20990865.035          12.250  
  -3845652.160    -2996610.728    24487734.600    24487743.032          11.250  
  -7295573.631    -5684851.042    23846213.450    23846223.091          11.000  
  -8067894.309    -6286672.848    20402918.599    20402922.516          12.500  
  10986164.852     8560628.420    23464112.315    23464120.914          11.000  
   9964762.978     7764731.952    22525827.176    22525834.742          11.000  
 12  1  1  2 20  0.0000000  0  8G 3G 5G11G13G14G18G21G29
 -11360274.317    -8852154.084    23218455.161    23218462.396          11.750  
 -17223551.378   -13420941.312    20623071.832    20623076.758          12.500  
 -22188826.549   -17289972.749    20976200.148    20976205.009          12.250  
  -3928325.306    -3061031.329    24472002.591    24472010.623          11.000  
  -7371536.947    -5744043.138    23831758.477    23831767.661          11.000  
  -8058802.730    -6279588.526    20404648.641    20404652.778          12.500  
  11083591.153     8636544.829    23482652.396    23482660.513          11.500  
  10061695.898     7840263.920    22544273.008    22544280.366          11.250  
 12  1  1  2 20 30.0000000  0  8G 3G 5G11G13G14G18G21G29
 -11424215.897    -8901978.663    23206288.079    23206294.758          11.500  
 -17244551.290   -13437304.888    20619075.863    20619080.571          12.750  
 -22265404.975   -17349644.209    20961627.611    20961632.856          12.250  
  -4010653.153    -3125182.838    24456335.476    24456345.010          11.000  
  -7447310.078    -5803087.011    23817339.420    23817347.832          11.250  
  -8049318.368    -6272198.147    20406453.316    20406457.376          12.750  
  11181219.159     8712618.439    23501230.552    23501238.833          11.500  
  10158872.264     7915985.600    22562765.371    22562772.751          11.250  
 12  1  1  2 21  0.0000000  0  8G 3G 5G11G13G14G18G21G29
 -11488056.447    -8951724.510    23194139.371    23194146.346          11.250  
 -17265282.434   -13453459.030    20615131.102    20615135.252          12.500  
 -22341520.555   -17408954.994    20947143.599    20947148.414          12.250  
  -4092633.154    -3189063.295    24440735.093    24440744.481          10.750  
  -7522889.773    -5861980.154    23802956.430    23802965.390          11.000  
  -8039440.183    -6264500.874    20408332.885    20408337.250          12.750  
  11279046.354     8788847.235    23519846.522    23519854.777          11.250  
  10256289.157     7991894.672    22581303.259    22581310.526          11.500  
 12  1  1  2 21 30.0000000  0  8G 3G 5G11G13G14G18G21G29
 -11551796.120    -9001391.721    23182010.021    23182017.151          11.500  
 -17285745.297   -13469404.118    20611237.076    20611241.346          12.500  
 -22417171.290   -17467903.585    20932747.783    20932752.732          12.250  
  -4174262.815    -3252670.805    24425201.208    24425210.687          10.250  
  -7598272.771    -5920720.048    23788611.113    23788621.069          11.000  
  -8029167.139    -6256495.937    20410287.672    20410292.073          12.750  
  11377070.154     8865229.233    23538499.388    23538508.630          11.250  
  10353943.648     8067988.905    22599886.738    22599893.765          11.500  
 12  1  1  2 22  0.0000000  0  8G 3G 5G11G13G14G18G21G29
 -11615435.075    -9050980.458    23169899.774    23169907.139          11.500  
 -17305940.360   -13485140.538    20607394.327    20607398.227          12.500  
 -22492355.230   -17526488.431    20918440.488    20918445.425          12.500  
  -4255539.727    -3316003.385    24409734.728    24409743.460          10.500  
  -7673455.896    -5979304.186    23774304.090    23774314.076          11.000  
  -8018498.257    -6248182.556    20412317.997    20412322.423          12.750  
  11475288.080     8941762.524    23557189.905    23557198.869          11.750  
  10451832.755     8144265.937    22618514.550    22618521.556          11.500  
 12  1  1  2 22 30.0000000  0  8G 3G 5G11G13G14G18G21G29
 -11678973.466    -9100490.845    23157808.931    23157816.118          12.000  
 -17325868.085   -13500668.644    20603602.152    20603606.147          12.500  
 -22567070.410   -17584708.010    20904222.422    20904227.355          12.500  
  -4336461.420    -3379059.178    24394335.796    24394344.215          10.750  
  -7748435.898    -6037730.067    23760036.057    23760045.779          11.250  
  -8007432.541    -6239559.936    20414423.650    20414428.043          12.750  
  11573697.591     9018445.076    23575916.629    23575926.185          11.500  
  10549953.572     8220723.539    22637186.193    22637193.945          11.000  
 12  1  1  2 23  0.0000000  0  8G 3G 5G11G13G14G18G21G29
 -11742411.432    -9149922.994    23145737.110    23145743.557          12.000  
 -17345528.972   -13515988.807    20599860.662    20599864.626          12.500  
 -22641314.903   -17642560.800    20890094.317    20890099.153          12.250  
  -4417025.444    -3441836.283    24379004.797    24379012.776          11.000  
  -7823209.519    -6095995.142    23745807.253    23745816.270          11.250  
  -7995968.991    -6230627.315    20416605.063    20416609.701          12.500  
  11672296.154     9095274.935    23594679.730    23594688.706          11.250  
  10648303.158     8297359.399    22655900.876    22655909.706          11.000  
 12  1  1  2 23 30.0000000  0  8G 3G 5G11G13G14G18G21G29
 -11805749.190    -9199277.041    23133684.104    23133691.536          11.750  
 -17364923.472   -13531101.409    20596169.829    20596174.155          12.500  
 -22715086.744   -17700045.312    20876055.976    20876060.691          12.250  
  -4497229.295    -3504332.762    24363742.489    24363751.054          11.000  
  -7897773.622    -6154096.888    23731618.445    23731627.765          11.000  
  -7984106.587    -6221383.935    20418862.414    20418866.841          12.500  
  11771081.207     9172250.093    23613477.865    23613486.871          11.250  
  10746878.544     8374171.185    22674659.566    22674668.090          11.250  
 12  1  1  2 24  0.0000000  0  8G 3G 5G11G13G14G18G21G29
 -11868986.843    -9248553.092    23121650.530    23121657.706          11.500  
 -17384052.068   -13546006.815    20592529.880    20592534.354          12.500  
 -22788384.044   -17757160.054    20862108.015    20862112.761          12.250  
  -4577070.653    -3566546.749    24348549.057    24348558.552          11.000  
  -7972124.942    -6212032.852    23717469.703    23717478.682          11.250  
  -7971844.438    -6211829.035    20421195.987    20421200.103          12.500  
  11870050.225     9249368.670    23632311.419    23632320.713          11.000  
  10845676.782     8451156.641    22693460.023    22693468.802          11.250  
 12  1  1  2 24 30.0000000  0  8G 3G 5G11G13G14G18G21G29
 -11932124.615    -9297751.294    23109635.704    23109642.796          11.500  
 -17402915.233   -13560705.393    20588940.251    20588945.006          12.500  
 -22861204.894   -17813903.538    20848250.667    20848255.135          12.250  
  -4656547.041    -3628476.349    24333426.292    24333434.112          11.250  
  -8046260.223    -6269800.505    23703361.927    23703370.991          11.750  
  -7959181.536    -6201961.853    20423605.956    20423609.937          12.500  
  11969200.731     9326628.656    23651179.695    23651188.031          11.000  
  10944694.895     8528313.438    22712303.216    22712311.623          11.500  
 12  1  1  2 25  0.0000000  0  8G 3G 5G11G13G14G18G21G29
 -11995162.623    -9346871.767    23097640.137    23097646.906          11.750  
 -17421513.466   -13575197.523    20585401.330    20585406.025          12.500  
 -22933547.464   -17870274.313    20834483.988    20834488.845          12.500  
  -4735655.998    -3690119.629    24318371.678    24318380.255          11.000  
  -8120176.228    -6327397.320    23689295.838    23689304.905          11.250  
  -7946116.954    -6191781.680    20426091.991    20426096.187          12.500  
  12068530.215     9404028.071    23670081.950    23670090.084          11.250  
  11043929.969     8605639.281    22731187.373    22731195.438          12.000  
 12  1  1  2 25 30.0000000  0  8G 3G 5G11G13G14G18G21G29
 -12058101.026    -9395914.649    23085662.854    23085669.368          11.750  
 -17439847.213   -13589483.552    20581912.620    20581917.203          12.750  
 -23005409.849   -17926270.942    20820809.350    20820813.778          12.250  
  -4814395.134    -3751474.754    24303388.656    24303397.113          10.750  
  -8193869.821    -6384820.808    23675272.428    23675280.650          11.500  
  -7932649.738    -6181287.782    20428654.683    20428659.127          12.500  
  12168036.168     9481565.026    23689016.837    23689025.689          11.750  
  11143378.994     8683131.868    22750112.615    22750120.336          12.000  
 12  1  1  2 26  0.0000000  0  8G 3G 5G11G13G14G18G21G29
 -12120940.013    -9444880.040    23073704.829    23073711.720          12.000  
 -17457916.985   -13603563.887    20578474.069    20578478.404          13.000  
 -23076790.238   -17981891.993    20807226.190    20807230.633          12.500  
  -4892762.044    -3812539.870    24288475.172    24288484.600          10.750  
  -8267337.766    -6442068.458    23661291.357    23661300.645          11.500  
  -7918778.997    -6170479.438    20431294.301    20431298.392          12.500  
  12267716.095     9559237.466    23707985.441    23707994.109          11.250  
  11243039.070     8760788.879    22769077.416    22769084.971          11.500  
 12  1  1  2 26 30.0000000  0  8G 3G 5G11G13G14G18G21G29
 -12183679.735    -9493768.089    23061765.825    23061772.805          11.500  
 -17475723.219   -13617438.884    20575085.465    20575089.784          12.750  
 -23147686.795   -18037136.013    20793734.719    20793739.499          12.500  
  -4970754.387    -3873313.069    24273633.778    24273642.956          10.750  
  -8340576.865    -6499137.757    23647354.331    23647363.892          11.750  
  -7904503.787    -6159355.924    20434010.909    20434014.606          12.750  
  12367567.488     9637043.525    23726986.366    23726995.466          11.250  
  11342907.210     8838608.000    22788081.559    22788089.057          12.000  
 12  1  1  2 27  0.0000000  0  8G 3G 5G11G13G14G18G21G29
 -12246320.317    -9542578.901    23049846.208    23049852.830          11.500  
 -17493266.431   -13631108.912    20571747.470    20571751.228          12.750  
 -23218097.697   -18092001.621    20780335.824    20780340.783          12.500  
  -5048369.791    -3933792.473    24258864.040    24258873.116          10.750  
  -8413583.834    -6556026.170    23633461.297    23633470.829          11.250  
  -7889823.225    -6147916.555    20436804.243    20436808.467          12.750  
  12467587.850     9714981.286    23746020.071    23746029.749          11.250  
  11442980.391     8916586.915    22807125.239    22807132.516          12.250  
 12  1  1  2 27 30.0000000  0  8G 3G 5G11G13G14G18G21G29
 -12308861.993    -9591312.590    23037945.104    23037951.385          11.500  
 -17510547.067   -13644574.349    20568459.031    20568462.990          12.750  
 -23288021.197   -18146487.418    20767030.048    20767034.431          12.500  
  -5125605.752    -3993976.336    24244166.060    24244174.915          10.750  
  -8486355.509    -6612731.260    23619613.803    23619622.773          11.000  
  -7874736.391    -6136160.599    20439675.050    20439679.470          12.750  
  12567774.736     9793048.812    23765085.357    23765095.002          11.500  
  11543255.712     8994723.326    22826206.694    22826214.151          12.000  
 12  1  1  2 28  0.0000000  0  8G 3G 5G11G13G14G18G21G29
 -12371304.847    -9639969.334    23026062.187    23026068.626          11.250  
 -17527565.618   -13657835.560    20565220.213    20565224.469          12.750  
 -23357455.490   -18200592.013    20753817.268    20753821.723          12.750  
  -5202459.979    -4053862.700    24229541.541    24229549.487          10.750  
  -8558888.668    -6669250.508    23605811.230    23605820.138          11.250  
  -7859242.428    -6124087.413    20442623.483    20442627.940          12.750  
  12668125.639     9871244.115    23784181.376    23784189.796          11.000  
  11643730.174     9073014.925    22845326.289    22845334.334          12.000  
 12  1  1  2 28 30.0000000  0  8G 3G 5G11G13G14G18G21G29
 -12433649.063    -9688549.217    23014198.250    23014204.868          12.000  
 -17544322.570   -13670892.914    20562031.620    20562035.592          12.750  
 -23426398.806   -18254314.049    20740697.578    20740702.113          12.500  
  -5278930.156    -4113449.777    24214989.766    24214997.766          10.500  
  -8631180.116    -6725581.427    23592055.133    23592063.322          11.750  
  -7843340.484    -6111696.310    20445649.948    20445653.769          12.500  
  12768638.039     9949565.310    23803308.353    23803317.637          11.750  
  11744400.774     9151459.357    22864483.654    22864492.196          12.000  
 12  1  1  2 29  0.0000000  0  8G 3G 5G11G13G14G18G21G29
 -12495894.809    -9737052.336    23002353.465    23002360.320          11.750  
 -17560818.368   -13683746.802    20558892.594    20558896.924          12.750  
 -23494849.436   -18307652.184    20727671.343    20727676.236          12.500  
  -5355013.835    -4172735.721    24200510.769    24200519.152          11.000  
  -8703226.659    -6781721.473    23578344.425    23578353.527          11.750  
  -7827029.667    -6098986.621    20448753.443    20448757.566          12.500  
  12869309.570    10028010.426    23822465.561    23822474.630          11.750  
  11845264.582     9230054.302    22883677.787    22883685.886          12.000  
 12  1  1  2 29 30.0000000  0  8G 3G 5G11G13G14G18G21G29
 -12558042.229    -9785478.853    22990526.726    22990534.521          12.000  
 -17577053.513   -13696397.561    20555803.013    20555807.375          13.000  
 -23562805.673   -18360605.062    20714739.867    20714744.592          12.250  
  -5430708.742    -4231718.695    24186107.524    24186115.909          11.500  
  -8775025.091    -6837668.220    23564681.732    23564690.821          11.750  
  -7810309.170    -6085957.691    20451935.140    20451939.671          12.500  
  12970137.725    10106577.646    23841652.673    23841662.245          11.750  
  11946318.571     9308797.490    22902907.856    22902915.854          11.250  
 12  1  1  2 30  0.0000000  0  8G 3G 5G11G13G14G18G21G29
 -12620091.476    -9833828.888    22978719.707    22978726.543          12.250  
 -17593028.461   -13708845.567    20552763.075    20552767.418          12.750  
 -23630265.788   -18413171.341    20701902.625    20701907.377          12.500  
  -5506012.568    -4290396.925    24171777.950    24171785.675          11.250  
  -8846572.222    -6893419.147    23551066.449    23551075.436          12.000  
  -7793178.123    -6072608.858    20455195.391    20455199.670          12.500  
  13071120.028    10185264.985    23860869.163    23860878.427          11.750  
  12047559.805     9387686.578    22922173.499    22922181.828          11.000  
 12  1  1  2 30 30.0000000  0  8G 3G 5G11G13G14G18G21G29
 -12682042.713    -9882102.517    22966930.851    22966937.474          11.750  
 -17608743.681   -13721091.218    20549772.606    20549776.759          12.750  
 -23697228.114   -18465349.722    20689160.197    20689164.860          12.750  
  -5580922.925    -4348768.591    24157522.960    24157531.024          11.000  
  -8917864.862    -6948971.762    23537499.666    23537508.745          11.750  
  -7775635.743    -6058939.510    20458533.664    20458537.527          12.500  
  13172254.069    10264070.525    23880114.040    23880123.799          11.500  
  12148985.269     9466719.222    22941474.159    22941482.787          11.750  
 12  1  1  2 31  0.0000000  0  8G 3G 5G11G13G14G18G21G29
 -12743896.088    -9930299.899    22955160.464    22955167.165          11.750  
 -17624199.679   -13733134.862    20546831.618    20546835.676          12.500  
 -23763690.970   -18517138.936    20676513.043    20676517.259          12.500  
  -5655437.508    -4406831.854    24143342.417    24143351.816          11.000  
  -8988899.824    -7004323.596    23523982.466    23523991.231          11.500  
  -7757681.201    -6044948.972    20461950.654    20461954.495          12.750  
  13273537.391    10342992.378    23899387.316    23899397.481          11.500  
  12250591.988     9545893.103    22960809.630    22960818.047          11.500  
 12  1  1  2 31 30.0000000  0  8G 3G 5G11G13G14G18G21G29
 -12805651.752    -9978421.158    22943409.136    22943415.201          12.250  
 -17639396.920   -13744976.870    20543939.310    20543943.543          12.500  
 -23829652.730   -18568537.687    20663960.547    20663965.061          12.750  
  -5729554.047    -4464584.976    24129238.761    24129247.215          11.000  
  -9059674.005    -7059472.162    23510514.060    23510523.121          11.500  
  -7739313.705    -6030636.667    20465445.665    20465449.769          13.000  
  13374967.578    10422028.648    23918689.353    23918699.297          11.000  
  12352377.022     9625205.914    22980178.901    22980187.164          11.000  
 12  1  1  2 32  0.0000000  0  8G 3G 5G11G13G14G18G21G29
 -12867309.845   -10026466.391    22931675.203    22931681.982          12.000  
 -17654335.861   -13756617.612    20541096.602    20541101.010          12.750  
 -23895111.759   -18619544.679    20651504.029    20651508.381          12.750  
  -5803270.230    -4522026.103    24115211.068    24115219.781          11.000  
  -9130184.066    -7114415.003    23497095.945    23497105.683          11.500  
  -7720532.469    -6016001.970    20469019.623    20469023.587          12.750  
  13476542.104    10501177.484    23938018.876    23938028.214          11.000  
  12454337.348     9704655.315    22999581.555    22999589.131          11.500  
 12  1  1  2 32 30.0000000  0  8G 3G 5G11G13G14G18G21G29
 -12928870.530   -10074435.719    22919960.228    22919967.585          11.750  
 -17669016.974   -13768057.445    20538302.873    20538307.545          12.500  
 -23960066.450   -18670158.691    20639143.798    20639147.967          12.500  
  -5876583.813    -4579153.519    24101260.171    24101267.918          11.000  
  -9200426.927    -7169149.608    23483728.908    23483738.787          11.750  
  -7701336.724    -6001044.267    20472672.600    20472676.652          12.750  
  13578258.686    10580436.941    23957374.604    23957383.985          11.250  
  12556469.995     9784238.970    23019016.368    23019024.543          11.750  
 12  1  1  2 33  0.0000000  0  8G 3G 5G11G13G14G18G21G29
 -12990333.977   -10122329.263    22908264.089    22908271.313          11.500  
 -17683440.743   -13779296.750    20535558.172    20535562.646          12.750  
 -24024515.196   -18720378.468    20626879.620    20626883.939          12.500  
  -5949492.539    -4635965.432    24087385.481    24087394.374          11.000  
  -9270399.416    -7223673.528    23470413.810    23470423.108          11.750  
  -7681725.709    -5985762.977    20476404.423    20476408.286          12.750  
  13680114.833    10659805.167    23976758.179    23976767.162          11.250  
  12658771.975     9863954.565    23038483.923    23038492.069          12.000  
 12  1  1  2 33 30.0000000  0  8G 3G 5G11G13G14G18G21G29
 -13051700.287   -10170147.130    22896586.549    22896593.379          11.500  
 -17697607.621   -13790335.888    20532862.410    20532866.957          12.750  
 -24088456.459   -18770202.793    20614711.864    20614716.213          12.250  
  -6021994.035    -4692460.043    24073589.051    24073598.604          10.750  
  -9340098.360    -7277984.274    23457150.364    23457159.653          11.500  
  -7661698.686    -5970157.543    20480215.381    20480219.250          12.500  
  13782108.112    10739280.260    23996166.118    23996176.175          11.250  
  12761240.249     9943799.796    23057983.158    23057991.283          11.750  
 12  1  1  2 34  0.0000000  0  8G 3G 5G11G13G14G18G21G29
 -13112969.646   -10217889.444    22884927.792    22884934.136          11.500  
 -17711518.095   -13801175.211    20530215.431    20530219.790          12.750  
 -24151888.682   -18819630.461    20602641.068    20602645.668          12.500  
  -6094086.143    -4748635.699    24059870.962    24059879.911          11.000  
  -9409520.570    -7332079.423    23443940.349    23443949.393          11.500  
  -7641254.891    -5954227.350    20484105.683    20484109.663          12.750  
  13884236.167    10818860.364    24015601.866    24015611.533          11.750  
  12863871.906    10023772.330    23077513.804    23077522.081          11.750  
 12  1  1  2 34 30.0000000  0  8G 3G 5G11G13G14G18G21G29
 -13174142.174   -10265556.300    22873286.691    22873293.037          11.750  
 -17725172.626   -13811815.091    20527617.120    20527621.655          12.500  
 -24214810.308   -18868660.266    20590667.392    20590671.940          12.250  
  -6165766.648    -4804490.568    24046230.525    24046238.814          11.000  
  -9478662.942    -7385956.490    23430783.130    23430791.902          11.750  
  -7620393.643    -5937971.862    20488075.468    20488079.215          12.500  
  13986496.595    10898543.626    24035061.582    24035071.264          11.000  
  12966663.924    10103869.790    23097074.610    23097083.350          11.250  
 12  1  1  2 35  0.0000000  0  8G 3G 5G11G13G14G18G21G29
 -13235218.007   -10313147.823    22861664.595    22861670.664          11.750  
 -17738571.661   -13822255.912    20525067.311    20525071.667          12.500  
 -24277219.850   -18917291.049    20578790.891    20578795.716          12.250  
  -6237033.240    -4860022.921    24032669.411    24032677.926          11.250  
  -9547522.243    -7439613.010    23417679.126    23417688.242          12.250  
  -7599114.202    -5921390.503    20492124.803    20492128.880          12.500  
  14088886.989    10978328.159    24054546.490    24054555.305          11.000  
  13069613.325    10184089.876    23116665.488    23116673.479          12.000  
 12  1  1  2 35 30.0000000  0  8G 3G 5G11G13G14G18G21G29
 -13296197.288   -10360664.116    22850060.731    22850066.827          11.750  
 -17751715.704   -13832498.036    20522566.070    20522570.640          12.250  
 -24339115.766   -18965521.617    20567012.579    20567017.302          12.750  
  -6307883.755    -4915231.075    24019186.333    24019194.413          11.000  
  -9616095.385    -7493046.550    23404630.215    23404638.839          11.750  
  -7577415.881    -5904482.766    20496253.755    20496258.182          12.500  
  14191404.988    11058212.074    24074053.880    24074063.883          10.500  
  13172717.084    10264430.289    23136286.028    23136293.670          11.500  
 12  1  1  2 36  0.0000000  0  9G 3G 5G 6G11G13G14G18G21G29
 -13357080.206   -10408105.294    22838475.106    22838481.435          11.750  
 -17764605.171   -13842541.808    20520113.045    20520117.561          12.500  
         0.665           0.894    25244535.549    25244546.214           8.750  
 -24400496.648   -19013350.845    20555332.354    20555336.826          12.500  
  -6378315.987    -4970113.281    24005782.880    24005792.106          10.750  
  -9684379.258    -7546254.682    23391636.043    23391644.692          11.000  
  -7555298.002    -5887248.091    20500462.858    20500467.158          12.750  
  14294048.200    11138193.600    24093587.519    24093595.831          10.750  
  13275972.282    10344888.678    23155934.270    23155943.520          11.500  
 12  1  1  2 36 30.0000000  0  9G 3G 5G 6G11G13G14G18G21G29
 -13417866.855   -10455471.462    22826907.861    22826914.063          11.750  
 -17777240.586   -13852387.579    20517708.522    20517713.242          12.500  
   -110178.324      -85852.697    25223566.158    25223579.567           9.000  
 -24461361.007   -19060777.583    20543750.092    20543754.953          12.750  
  -6448327.744    -5024667.852    23992460.157    23992468.879          11.000  
  -9752370.665    -7599234.896    23378698.076    23378706.359          11.000  
  -7532759.891    -5869685.953    20504751.991    20504755.922          12.500  
  14396814.240    11218270.822    24113143.487    24113151.767          11.000  
  13379375.847    10425462.687    23175611.523    23175620.871          11.250  
 12  1  1  2 37  0.0000000  0  9G 3G 5G 6G11G13G14G18G21G29
 -13478557.373   -10502762.721    22815358.737    22815365.054          11.750  
 -17789622.365   -13862035.725    20515352.504    20515356.949          12.500  
   -220284.100     -171649.246    25202614.352    25202627.907          10.000  
 -24521707.383   -19107800.720    20532266.472    20532271.251          12.500  
  -6517916.844    -5078893.070    23979218.170    23979226.701          11.250  
  -9820066.508    -7651984.796    23365815.891    23365824.047          11.250  
  -7509800.899    -5851795.881    20509121.062    20509124.847          12.750  
  14499700.773    11298441.939    24132720.795    24132730.796          10.750  
  13482924.873    10506149.992    23195316.214    23195325.893          11.750  
 12  1  1  2 37 30.0000000  0  9G 3G 5G 6G11G13G14G18G21G29
 -13539151.909   -10549979.189    22803827.630    22803834.084          12.000  
 -17801750.983   -13871486.589    20513044.661    20513048.701          12.500  
   -330314.984     -257387.340    25181676.611    25181689.279          10.250  
 -24581534.409   -19154419.162    20520881.920    20520886.580          12.500  
  -6587081.129    -5132787.238    23966056.654    23966064.374          11.250  
  -9887463.633    -7704501.960    23352990.754    23352998.451          11.500  
  -7486420.388    -5833577.316    20513569.947    20513574.130          12.500  
  14602705.453    11378705.098    24152322.240    24152331.886          10.750  
  13586616.332    10586948.314    23215048.646    23215057.511          11.500  
 12  1  1  2 38  0.0000000  0  9G 3G 5G 6G11G13G14G18G21G29
 -13599650.592   -10597120.983    22792315.159    22792321.670          12.000  
 -17813626.901   -13880740.568    20510784.898    20510789.110          12.500  
   -440268.812     -343065.530    25160752.960    25160765.963          10.250  
 -24640840.670   -19200631.810    20509596.488    20509601.047          12.750  
  -6655818.375    -5186348.707    23952975.781    23952983.895          11.500  
  -9954558.935    -7756783.922    23340221.856    23340230.473          11.500  
  -7462617.721    -5815029.834    20518099.396    20518103.625          12.500  
  14705825.907    11459058.494    24171945.163    24171955.389          11.000  
  13690447.267    10667855.300    23234807.682    23234815.778          11.250  
 12  1  1  2 38 30.0000000  0  9G 3G 5G 6G11G13G14G18G21G29
 -13660053.532   -10644188.178    22780820.797    22780827.277          11.750  
 -17825250.553   -13889797.980    20508572.588    20508577.045          12.500  
   -550143.861     -428682.175    25139844.289    25139857.863          10.250  
 -24699624.815   -19246437.579    20498410.295    20498414.548          12.500  
  -6724126.555    -5239575.777    23939977.219    23939986.261          11.250  
 -10021349.292    -7808828.296    23327512.460    23327520.875          11.500  
  -7438392.266    -5796152.880    20522709.193    20522713.588          12.500  
  14809059.743    11539500.234    24191589.908    24191600.429          11.000  
  13794414.626    10748868.608    23254591.828    23254600.277          10.750  
 12  1  1  2 39  0.0000000  0  9G 3G 5G 6G11G13G14G18G21G29
 -13720360.868   -10691180.886    22769344.267    22769350.958          12.000  
 -17836622.448   -13898659.197    20506408.611    20506412.787          12.500  
   -659938.062     -514235.921    25118950.863    25118963.958          10.750  
 -24757885.458   -19291835.448    20487323.585    20487327.782          12.750  
  -6792003.451    -5292466.802    23927060.441    23927069.760          11.000  
 -10087831.638    -7860632.628    23314861.481    23314869.804          11.250  
  -7413743.428    -5776946.021    20527399.782    20527404.340          12.750  
  14912404.722    11620028.594    24211256.053    24211267.464          10.500  
  13898515.503    10829985.942    23274401.322    23274410.401          11.000  
 12  1  1  2 39 30.0000000  0  9G 3G 5G 6G11G13G14G18G21G29
 -13780572.757   -10738099.192    22757886.376    22757893.115          12.000  
 -17847743.006   -13907324.563    20504292.660    20504296.785          12.500  
   -769649.419     -599725.157    25098072.760    25098084.324          10.750  
 -24815621.287   -19336824.368    20476336.789    20476340.933          12.750  
  -6859446.927    -5345020.152    23914226.897    23914235.582          11.500  
 -10154002.853    -7912194.516    23302269.273    23302277.720          11.000  
  -7388670.616    -5757408.802    20532170.762    20532175.251          12.750  
  15015858.487    11700641.710    24230943.265    24230953.539          11.000  
  14002746.876    10911204.954    23294236.166    23294245.062          11.250  
 12  1  1  2 40  0.0000000  0  9G 3G 5G 6G11G13G14G18G21G29
 -13840689.320   -10784943.218    22746446.951    22746453.135          11.500  
 -17858612.686   -13915794.454    20502224.082    20502228.437          12.750  
   -879276.114     -685148.483    25077211.546    25077222.834          10.500  
 -24872830.952   -19381403.308    20465450.130    20465454.412          13.000  
  -6926454.982    -5397234.154    23901476.134    23901484.430          11.500  
 -10219859.805    -7963511.555    23289736.996    23289745.641          11.000  
  -7363173.276    -5737540.775    20537022.999    20537027.187          12.750  
  15119418.752    11781337.762    24250650.669    24250660.388          11.000  
  14107105.726    10992523.314    23314095.187    23314104.184          11.000  
 12  1  1  2 40 30.0000000  0  9G 3G 5G 6G11G13G14G18G21G29
 -13900710.651   -10831713.039    22735025.065    22735031.428          11.750  
 -17869231.941   -13924069.202    20500203.333    20500207.917          12.500  
   -988816.164     -770504.203    25056366.529    25056379.558          10.250  
 -24929513.184   -19425571.269    20454663.772    20454667.992          13.000  
  -6993025.462    -5449107.180    23888808.181    23888815.862          11.250  
 -10285399.455    -8014581.316    23277264.785    23277273.790          11.250  
  -7337250.808    -5717341.490    20541956.058    20541960.327          12.500  
  15223083.121    11862114.970    24270376.921    24270387.943          10.750  
  14211589.121    11073938.735    23333977.628    23333986.668          11.500  
 12  1  1  2 41  0.0000000  0  9G 3G 5G 6G11G13G14G18G21G29
 -13960636.887   -10878408.773    22723621.592    22723627.560          12.000  
 -17879601.209   -13932149.172    20498230.261    20498234.714          12.500  
  -1098267.629     -855790.866    25035538.984    25035550.176          11.000  
 -24985666.713   -19469327.245    20443978.066    20443982.481          13.000  
  -7059156.287    -5500637.648    23876223.951    23876231.425          11.750  
 -10350618.717    -8065401.441    23264854.355    23264862.775          11.000  
  -7310902.683    -5696810.526    20546969.932    20546974.481          12.750  
  15326849.367    11942971.610    24290122.156    24290133.876          10.750  
  14316194.050    11155448.849    23353883.563    23353892.781          11.750  
 12  1  1  2 41 30.0000000  0  9G 3G 5G 6G11G13G14G18G21G29
 -14020468.154   -10925030.510    22712236.006    22712242.557          12.000  
 -17889720.969   -13940034.693    20496304.165    20496309.272          12.500  
  -1207628.614     -941006.998    25014729.064    25014739.344          10.250  
 -25041290.293   -19512670.264    20433393.049    20433397.708          13.000  
  -7124845.344    -5551823.922    23863723.158    23863731.615          11.000  
 -10415514.521    -8115969.501    23252504.583    23252513.003          11.000  
  -7284128.391    -5675947.463    20552064.793    20552069.420          12.750  
  15430715.115    12023905.804    24309887.640    24309899.358          10.250  
  14420917.540    11237051.321    23373812.064    23373821.080          11.250  
 12  1  1  2 42  0.0000000  0  9G 3G 5G 6G11G13G14G18G21G29
 -14080204.564   -10971578.327    22700868.991    22700874.738          12.000  
 -17899591.645   -13947726.138    20494425.921    20494430.635          12.750  
  -1316897.186    -1026151.160    24993936.160    24993946.102          10.500  
 -25096382.674   -19555599.371    20422909.229    20422913.884          13.000  
  -7190090.680    -5602664.386    23851307.468    23851315.782          11.250  
 -10480083.787    -8166283.128    23240217.101    23240225.860          11.250  
  -7256927.356    -5654751.898    20557241.110    20557245.283          12.500  
  15534678.153    12104915.753    24329672.223    24329683.125          10.250  
  14525756.645    11318743.900    23393762.141    23393771.272          11.250  
 12  1  1  2 42 30.0000000  0  9G 3G 5G 6G11G13G14G18G21G29
 -14139846.224   -11018052.316    22689519.396    22689525.365          12.000  
 -17909213.684   -13955223.841    20492594.902    20492599.569          12.500  
  -1426071.372    -1111221.744    24973159.887    24973171.278          10.750  
 -25150942.650   -19598113.624    20412527.103    20412531.375          12.750  
  -7254890.195    -5653157.456    23838976.270    23838985.365          11.500  
 -10544323.470    -8216339.956    23227992.997    23228001.829          11.250  
  -7229299.104    -5633223.436    20562498.632    20562502.839          12.500  
  15638736.235    12185999.681    24349475.064    24349484.229          10.750  
  14630708.341    11400524.233    23413733.879    23413743.507          11.250  
 12  1  1  2 43  0.0000000  0  9G 3G 5G 6G11G13G14G18G21G29
 -14199393.288   -11064452.570    22678187.973    22678194.079          11.500  
 -17918587.551   -13962528.142    20490811.016    20490815.704          12.500  
  -1535149.220    -1196217.284    24952402.877    24952414.502          10.750  
 -25204969.036   -19640212.104    20402246.205    20402250.541          12.750  
  -7319241.872    -5703301.552    23826730.855    23826739.975          11.250  
 -10608230.481    -8266137.569    23215831.695    23215841.205          10.750  
  -7201243.144    -5611361.688    20567837.494    20567841.709          12.750  
  15742887.007    12267155.925    24369294.157    24369304.119          10.500  
  14735769.670    11482389.953    23433727.217    23433736.025          10.750  
 12  1  1  2 43 30.0000000  0  9G 3G 5G 6G11G13G14G18G21G29
 -14258845.803   -11110779.171    22666874.405    22666880.637          11.750  
 -17927713.652   -13969639.396    20489074.220    20489079.032          12.750  
  -1644128.813    -1281136.320    24931664.992    24931674.787          11.000  
 -25258460.666   -19681893.862    20392067.004    20392071.718          12.750  
  -7383143.704    -5753095.164    23814570.265    23814579.808          10.750  
 -10671801.835    -8315673.599    23203734.984    23203743.223          11.000  
  -7172759.000    -5589166.278    20573257.919    20573262.409          12.750  
  15847128.163    12348382.614    24389130.663    24389139.706          10.750  
  14840937.668    11564338.823    23453740.580    23453748.537          11.000  
 12  1  1  2 44  0.0000000  0  9G 3G 5G 6G11G13G14G18G21G29
 -14318203.909   -11157032.193    22655578.653    22655584.991          12.000  
 -17936592.443   -13976557.950    20487384.652    20487389.678          12.750  
  -1753008.262    -1365977.261    24910946.540    24910955.620          10.750  
 -25311416.396   -19723158.052    20381989.863    20381994.098          12.500  
  -7446593.666    -5802536.685    23802496.078    23802505.349          11.500  
 -10735034.485    -8364945.712    23191702.613    23191710.524          11.000  
  -7143846.174    -5566636.841    20578759.792    20578764.371          12.500  
  15951457.611    12429678.053    24408983.872    24408993.150          11.250  
  14946209.341    11646368.453    23473772.806    23473781.893          11.250  
 12  1  1  2 44 30.0000000  0  9G 3G 5G 6G11G13G14G18G21G29
 -14377467.733   -11203211.739    22644301.215    22644307.400          11.750  
 -17945224.372   -13983284.153    20485742.481    20485746.915          12.750  
  -1861785.543    -1450738.680    24890246.481    24890256.233          11.250  
 -25363835.116   -19764003.765    20372014.982    20372018.979          12.500  
  -7509589.846    -5851624.542    23790507.537    23790517.030          10.750  
 -10797925.438    -8413951.544    23179734.671    23179742.800          11.750  
  -7114504.263    -5543773.046    20584343.316    20584347.874          12.500  
  16055872.883    12511040.428    24428852.926    24428863.438          11.000  
  15051581.697    11728476.569    23493824.476    23493833.961          11.000  
 12  1  1  2 45  0.0000000  0  9G 3G 5G 6G11G13G14G18G21G29
 -14436637.352   -11249317.880    22633041.604    22633047.878          12.000  
 -17953609.870   -13989818.310    20484146.742    20484151.115          12.500  
  -1970458.964    -1535419.071    24869566.573    24869575.650          11.500  
 -25415715.690   -19804430.167    20362142.280    20362146.429          12.500  
  -7572130.263    -5900357.263    23778606.353    23778616.111          11.000  
 -10860471.591    -8462688.732    23167832.128    23167840.814          11.500  
  -7084732.795    -5520574.538    20590008.698    20590013.223          12.750  
  16160371.923    12592467.970    24448738.626    24448749.123          11.250  
  15157051.854    11810660.871    23513895.625    23513904.563          11.250  
 12  1  1  2 45 30.0000000  0  9G 3G 5G 6G11G13G14G18G21G29
 -14495712.890   -11295350.722    22621799.349    22621806.204          12.000  
 -17961749.364   -13996160.783    20482598.325    20482602.321          12.500  
  -2079026.422    -1620016.893    24848904.842    24848916.223          10.750  
 -25467057.054   -19844436.406    20352372.271    20352376.352          12.500  
  -7634212.912    -5948733.292    23766792.414    23766801.200          10.750  
 -10922670.000    -8511154.950    23155996.275    23156004.327          11.500  
  -7054531.379    -5497040.999    20595755.924    20595760.659          12.750  
  16264952.413    12673959.046    24468640.767    24468650.763          10.750  
  15262616.793    11892919.040    23533984.218    23533993.883          11.250  
 12  1  1  2 46  0.0000000  0  9G 3G 5G 6G11G13G14G18G21G29
 -14554694.402   -11341310.299    22610575.912    22610582.228          12.000  
 -17969643.301   -14002311.903    20481095.910    20481100.290          12.500  
  -2187485.961    -1704530.734    24828265.722    24828276.911          10.000  
 -25517858.109   -19884021.645    20342705.374    20342709.435          12.750  
  -7695835.876    -5996751.176    23755066.480    23755074.706          10.750  
 -10984517.657    -8559347.862    23144226.669    23144235.052          11.500  
  -7023899.579    -5473172.110    20601585.071    20601589.761          12.750  
  16369612.147    12755511.854    24488556.376    24488566.588          10.500  
  15368273.573    11975248.741    23554090.263    23554100.033          11.000  
 12  1  1  2 46 30.0000000  0  9G 3G 5G 6G11G13G14G18G21G29
 -14613582.019   -11387196.731    22599370.135    22599376.568          11.750  
 -17977292.082   -14008272.019    20479640.405    20479644.783          12.500  
  -2295835.755    -1788959.015    24807647.976    24807660.259          10.000  
 -25568117.874   -19923185.073    20333141.277    20333145.343          12.750  
  -7756997.246    -6044409.305    23743428.434    23743436.738          10.750  
 -11046011.567    -8607265.119    23132524.276    23132532.899          11.750  
  -6992837.017    -5448967.557    20607495.874    20607500.805          12.500  
  16474348.967    12837124.682    24508487.744    24508498.210          11.000  
  15474019.159    12057647.681    23574212.919    23574222.940          11.000  
 12  1  1  2 47  0.0000000  0  9G 3G 5G 6G11G13G14G18G21G29
 -14672375.829   -11433010.051    22588181.493    22588188.068          12.000  
 -17984696.171   -14014041.444    20478231.241    20478235.832          12.750  
  -2404073.865    -1873300.192    24787050.311    24787062.009          11.250  
 -25617835.316   -19961925.903    20323680.331    20323684.771          12.750  
  -7817695.077    -6091706.308    23731878.044    23731886.383          11.000  
 -11107148.779    -8654904.418    23120890.235    23120898.748          12.000  
  -6961343.310    -5424427.059    20613489.066    20613493.763          12.750  
  16579160.550    12918795.857    24528433.274    24528443.024          11.250  
  15579850.680    12140113.544    23594351.303    23594362.336          11.250  
 12  1  1  2 47 30.0000000  0  9G 3G 5G 6G11G13G14G18G21G29
 -14731075.942   -11478750.357    22577011.482    22577017.949          12.250  
 -17991855.971   -14019620.515    20476868.790    20476873.493          12.750  
  -2512198.442    -1957552.994    24766475.651    24766485.871          10.750  
 -25667009.415   -20000243.368    20314323.002    20314326.967          12.750  
  -7877927.518    -6138640.634    23720415.665    23720424.050          11.000  
 -11167926.280    -8702263.444    23109324.807    23109333.031          11.750  
  -6929418.095    -5399550.301    20619564.050    20619568.952          12.500  
  16684044.774    13000523.604    24548391.007    24548401.539          11.250  
  15685765.159    12222644.046    23614507.043    23614516.128          11.250  
 12  1  1  2 48  0.0000000  0  9G 3G 5G 6G11G13G14G18G21G29
 -14789682.428   -11524417.685    22565858.701    22565865.299          12.000  
 -17998771.902   -14025009.563    20475552.604    20475557.197          12.500  
  -2620207.501    -2041715.675    24745922.168    24745932.630          10.750  
 -25715639.214   -20038136.693    20305069.112    20305073.151          12.750  
  -7937692.694    -6185210.833    23709043.217    23709050.780          11.000  
 -11228341.154    -8749339.893    23097827.759    23097836.519          11.500  
  -6897061.028    -5374337.041    20625721.655    20625726.493          12.500  
  16788999.392    13082306.214    24568362.971    24568374.031          10.750  
  15791759.636    12305236.892    23634677.588    23634686.816          11.000  
 12  1  1  2 48 30.0000000  0  9G 3G 5G 6G11G13G14G18G21G29
 -14848195.343   -11570012.150    22554724.208    22554730.772          11.750  
 -18005444.409   -14030208.917    20474283.079    20474287.439          12.500  
  -2728099.211    -2125786.905    24725390.349    24725401.772          11.000  
 -25763723.734   -20075605.135    20295918.934    20295922.785          12.500  
  -7996988.713    -6231415.511    23697759.015    23697767.036          11.250  
 -11288390.395    -8796131.463    23086401.217    23086409.896          12.000  
  -6864271.762    -5348787.003    20631961.579    20631965.491          12.500  
  16894022.315    13164142.032    24588349.443    24588359.256          10.500  
  15897831.115    12387889.774    23654861.959    23654872.871          11.000  
 12  1  1  2 49  0.0000000  0  9G 3G 5G 6G11G13G14G18G21G29
 -14906614.818   -11615533.783    22543607.129    22543614.140          12.000  
 -18011873.886   -14035218.914    20473059.370    20473063.999          12.750  
  -2835871.524    -2209765.243    24704881.783    24704893.865          11.000  
 -25811262.093   -20112647.984    20286872.337    20286876.727          12.750  
  -8055813.775    -6277253.190    23686565.030    23686572.624          11.000  
 -11348071.124    -8842635.824    23075044.398    23075052.999          11.750  
  -6831049.983    -5322899.955    20638283.421    20638287.481          12.750  
  16999111.243    13246029.364    24608347.092    24608358.472          10.250  
  16003976.725    12470600.346    23675061.040    23675071.317          10.750  
 12  1  1  2 49 30.0000000  0  9G 3G 5G 6G11G13G14G18G21G29
 -14964940.869   -11660982.639    22532508.239    22532514.657          11.750  
 -18018060.763   -14040039.847    20471882.265    20471886.687          12.500  
  -2943522.675    -2293649.061    24684396.835    24684407.615          11.000  
 -25858253.340   -20149264.524    20277930.184    20277934.496          12.750  
  -8114166.025    -6322722.446    23675460.860    23675469.014          11.250  
 -11407380.370    -8888850.752    23063757.876    23063766.347          11.750  
  -6797395.393    -5296675.643    20644687.797    20644691.945          12.750  
  17104264.158    13327966.422    24628357.801    24628368.066          10.000  
  16110193.457    12553366.393    23695273.603    23695283.935          11.000  
 12  1  1  2 50  0.0000000  0  9G 3G 5G 6G11G13G14G18G21G29
 -15023173.645   -11706358.780    22521426.757    22521432.927          11.750  
 -18024005.436   -14044672.065    20470751.194    20470755.521          12.500  
  -3051050.757    -2377436.987    24663934.179    24663944.957          10.750  
 -25904696.602   -20185454.081    20269091.886    20269096.701          12.500  
  -8172043.652    -6367821.854    23664446.841    23664455.568          11.250  
 -11466315.210    -8934773.961    23052542.956    23052551.503          12.000  
  -6763307.700    -5270113.859    20651174.279    20651179.006          12.500  
  17209478.835    13409951.629    24648379.203    24648391.592          10.000  
  16216478.424    12636185.602    23715498.754    23715509.618          11.250  
 12  1  1  2 50 30.0000000  0  9G 3G 5G 6G11G13G14G18G21G29
 -15081313.226   -11751662.276    22510363.280    22510369.995          12.000  
 -18029708.327   -14049115.882    20469665.722    20469670.154          12.500  
  -3158453.842    -2461127.502    24643496.734    24643507.079          10.500  
 -25950591.023   -20221215.957    20260358.399    20260363.153          12.750  
  -8229444.845    -6412550.015    23653523.776    23653532.448          11.250  
 -11524872.773    -8980403.158    23041399.986    23041407.843          12.000  
  -6728786.648    -5243214.381    20657743.195    20657748.207          12.500  
  17314753.033    13491983.311    24668412.379    24668423.953          10.250  
  16322828.649    12719055.635    23735736.778    23735746.357          11.000  
 12  1  1  2 51  0.0000000  0  9G 3G 5G 6G11G13G14G18G21G29
 -15139359.628   -11796893.202    22499317.363    22499324.209          11.750  
 -18035169.846   -14053371.638    20468626.417    20468630.858          12.500  
  -3265730.055    -2544719.201    24623082.329    24623092.797          10.750  
 -25995935.741   -20256549.494    20251729.889    20251734.332          12.500  
  -8286367.854    -6456905.537    23642691.938    23642700.308          11.000  
 -11583050.116    -9025736.079    23030329.420    23030337.393          12.000  
  -6693831.965    -5215976.995    20664394.868    20664399.767          12.500  
  17420084.818    13574059.761    24688456.212    24688467.849           9.750  
  16429241.186    12801974.271    23755987.070    23755996.519          11.000  
 12  1  1  2 51 30.0000000  0  9G 3G 5G 6G11G13G14G18G21G29
 -15197312.920   -11842051.571    22488289.452    22488295.896          12.250  
 -18040390.423   -14057439.621    20467632.823    20467637.198          12.500  
  -3372877.427    -2628210.524    24602692.253    24602702.980          10.750  
 -26040729.975   -20291454.069    20243205.736    20243210.294          12.500  
  -8342810.902    -6500887.093    23631951.253    23631959.048          11.000  
 -11640844.379    -9070770.508    23019331.515    23019339.373          12.000  
  -6658443.371    -5188401.530    20671129.211    20671134.194          12.500  
  17525471.918    13656179.319    24708510.879    24708522.516          10.000  
  16535713.140    12884939.160    23776247.515    23776258.098          11.000  
 12  1  1  2 52  0.0000000  0  9G 3G 5G 6G11G13G14G18G21G29
 -15255173.185   -11887137.472    22477279.113    22477285.655          12.250  
 -18045370.420   -14061320.147    20466685.195    20466689.749          12.500  
  -3479894.147    -2711599.989    24582327.412    24582338.579          11.000  
 -26084972.891   -20325929.064    20234786.497    20234791.047          12.500  
  -8398772.229    -6544493.261    23621302.053    23621309.970          10.750  
 -11698252.682    -9115504.169    23008407.215    23008414.722          12.500  
  -6622620.694    -5160487.787    20677946.262    20677950.953          12.500  
  17630912.242    13738340.342    24728576.445    24728587.608          10.250  
  16642241.580    12967948.079    23796519.032    23796530.045          11.250  
 12  1  1  2 52 30.0000000  0  9G 3G 5G 6G11G13G14G18G21G29
 -15312940.477   -11932150.915    22466286.309    22466292.576          12.250  
 -18050110.250   -14065013.542    20465783.152    20465788.005          12.500  
  -3586778.420    -2794886.295    24561988.001    24561999.786          11.000  
 -26128663.736   -20359973.847    20226472.577    20226476.835          12.500  
  -8454250.092    -6587722.749    23610745.214    23610752.404          11.000  
 -11755272.167    -9159934.860    22997556.474    22997564.157          12.250  
  -6586363.685    -5132235.619    20684845.801    20684850.209          12.500  
  17736403.588    13820541.276    24748650.197    24748663.835          10.500  
  16748823.564    13050998.751    23816801.183    23816813.201          11.000  
 12  1  1  2 53  0.0000000  0  9G 3G 5G 6G11G13G14G18G21G29
 -15370614.866   -11977091.967    22455311.397    22455317.500          12.250  
 -18054610.326   -14068520.101    20464927.274    20464931.646          12.500  
  -3693528.303    -2878067.831    24541673.827    24541684.851          10.500  
 -26171801.744   -20393587.864    20218263.760    20218268.004          12.500  
  -8509242.848    -6630574.188    23600280.265    23600288.266          11.250  
 -11811899.962    -9204060.354    22986780.270    22986788.597          12.000  
  -6549672.165    -5103644.868    20691827.832    20691832.406          12.250  
  17841944.010    13902780.296    24768733.850    24768747.306          11.500  
  16855456.141    13134088.834    23837092.655    23837104.772          10.750  
 12  1  1  2 53 30.0000000  0  9G 3G 5G 6G11G13G14G18G21G29
 -15428196.417   -12021960.649    22444353.626    22444360.192          12.250  
 -18058871.029   -14071840.138    20464116.489    20464120.531          12.500  
  -3800141.899    -2961143.184    24521385.779    24521396.158          11.250  
 -26214386.203   -20426770.537    20210160.247    20210164.504          12.500  
  -8563748.746    -6673046.274    23589907.646    23589916.380          11.500  
 -11868133.251    -9247878.411    22976079.832    22976087.807          11.750  
  -6512545.932    -5074715.384    20698892.431    20698897.526          12.500  
  17947531.262    13985055.861    24788826.305    24788838.297          11.000  
  16962136.466    13217216.120    23857394.112    23857405.314          10.750  
 12  1  1  2 54  0.0000000  0  9G 3G 5G 6G11G13G14G18G21G29
 -15485685.171   -12066757.030    22433413.416    22433420.053          12.250  
 -18062892.765   -14074973.960    20463351.183    20463355.694          12.500  
  -3906617.348    -3044110.891    24501124.281    24501134.464          10.750  
 -26256416.371   -20459521.308    20202162.066    20202166.433          12.500  
  -8617766.120    -6715137.680    23579628.783    23579637.051          11.750  
 -11923969.206    -9291386.882    22965454.926    22965462.180          11.500  
  -6474984.836    -5045447.050    20706040.317    20706044.971          12.500  
  18053163.388    14067366.361    24808927.643    24808939.605          11.250  
  17068861.604    13300378.295    23877704.075    23877714.501          10.750  
 12  1  1  2 54 30.0000000  0  9G 3G 5G 6G11G13G14G18G21G29
 -15543081.149   -12111481.117    22422491.541    22422497.818          12.250  
 -18066675.904   -14077921.892    20462631.342    20462635.631          12.750  
  -4012952.798    -3126969.523    24480888.738    24480900.000          11.000  
 -26297891.586   -20491839.658    20194269.632    20194274.143          12.500  
  -8671293.292    -6756847.140    23569443.098    23569451.101          11.500  
 -11979404.962    -9334583.513    22954905.632    22954913.033          11.750  
  -6436988.716    -5015839.732    20713270.919    20713275.503          12.750  
  18158838.248    14149710.150    24829037.794    24829049.396          10.750  
  17175628.594    13383573.092    23898021.280    23898031.612          11.000  
 12  1  1  2 55  0.0000000  0  9G 3G 5G 6G11G13G14G18G21G29
 -15600384.404   -12156132.976    22411587.412    22411593.075          12.000  
 -18070220.852   -14080684.191    20461956.600    20461961.145          12.500  
  -4119146.382    -3209717.601    24460682.049    24460691.715          11.250  
 -26338811.196   -20523725.056    20186482.924    20186487.229          12.500  
  -8724328.678    -6798173.345    23559350.699    23559359.098          11.250  
 -12034437.750    -9377466.152    22944432.742    22944440.669          12.000  
  -6398557.443    -4985893.331    20720584.411    20720588.817          12.750  
  18264553.903    14232085.7841   24849155.521    24849166.524          11.000  
  17282434.624    13466798.309    23918346.360    23918355.861          11.250  
 12  1  1  2 55 30.0000000  0  9G 3G 5G 6G11G13G14G18G21G29
 -15657595.014   -12200712.638    22400700.236    22400706.355          12.250  
 -18073527.981   -14083261.201    20461327.326    20461331.851          12.750  
  -4225196.286    -3292353.725    24440500.327    24440511.470          11.250  
 -26379174.531   -20555177.010    20178802.189    20178806.165          12.750  
  -8776870.586    -6839115.071    23549352.337    23549360.245          11.250  
 -12089064.794    -9420032.601    22934037.655    22934045.504          12.000  
  -6359690.875    -4955607.736    20727980.455    20727985.130          12.750  
  18370308.136    14314491.401    24869281.114    24869292.279          11.250  
  17389276.752    13550051.636    23938677.508    23938688.549          10.750  
 12  1  1  2 56  0.0000000  0  9G 3G 5G 6G11G13G14G18G21G29
 -15714712.974   -12245220.119    22389831.205    22389837.279          12.250  
 -18076597.711   -14085653.196    20460742.970    20460747.740          12.750  
  -4331100.582    -3374876.411    24420347.081    24420357.657          11.000  
 -26418981.006   -20586195.032    20171226.941    20171231.346          12.750  
  -8828917.445    -6879671.016    23539447.882    23539455.113          11.000  
 -12143283.288    -9462280.703    22923720.480    22923727.955          11.500  
  -6320388.927    -4924982.880    20735459.344    20735463.883          12.500  
  18476098.886    14396925.575    24889410.805    24889423.873          10.000  
  17496152.064    13633330.803    23959015.546    23959025.303          10.750  
 12  1  1  2 56 30.0000000  0  9G 3G 5G 6G11G13G14G18G21G29
 -15771738.321   -12289655.423    22378979.547    22378985.831          12.250  
 -18079430.373   -14087860.461    20460204.025    20460208.377          12.750  
  -4436857.474    -3457284.205    24400222.643    24400234.026          10.750  
 -26458230.021   -20616778.678    20163758.226    20163762.672          12.750  
  -8880467.651    -6919839.952    23529638.426    23529645.576          11.500  
 -12197090.468    -9504208.321    22913481.113    22913488.666          11.750  
  -6280651.507    -4894018.699    20743021.312    20743025.608          12.500  
  18581924.278    14479386.578    24909547.868    24909562.264          10.250  
  17603057.586    13716633.588    23979358.632    23979369.006          10.750  
 12  1  1  2 57  0.0000000  0  9G 3G 5G 6G11G13G14G18G21G29
 -15828671.121   -12334018.582    22368145.444    22368151.584          12.000  
 -18082026.378   -14089883.317    20459709.995    20459714.797          12.750  
  -4542465.156    -3539575.760    24380126.457    24380137.237          10.750  
 -26496921.016   -20646927.482    20156395.590    20156399.992          12.500  
  -8931519.618    -6959620.664    23519923.203    23519930.820          12.000  
 -12250483.585    -9545813.293    22903320.805    22903327.877          11.750  
  -6240478.512    -4862715.127    20750665.800    20750670.660          12.250  
  18687782.116    14561873.056    24929692.547    24929705.829          10.250  
  17709990.576    13799957.727    23999707.269    23999718.269          11.000  
 12  1  1  2 57 30.0000000  0  9G 3G 5G 6G11G13G14G18G21G29
 -15885511.389   -12378309.659    22357328.936    22357335.200          12.000  
 -18084386.053   -14091722.052    20459260.938    20459265.772          12.750  
  -4647921.673    -3621749.523    24360058.845    24360068.225          11.000  
 -26535053.415   -20676641.031    20149139.072    20149143.522          12.750  
  -8982071.825    -6999011.961    23510302.704    23510311.024          11.750  
 -12303459.901    -9587093.493    22893239.600    22893247.083          11.250  
  -6199869.920    -4831072.119    20758393.491    20758398.278          12.500  
  18793670.530    14644383.233    24949841.911    24949856.406          10.500  
  17816948.074    13883300.992    24020060.781    24020072.298          10.750  
 12  1  1  2 58  0.0000000  0  9G 3G 5G 6G11G13G14G18G21G29
 -15942259.104   -12422528.632    22346530.201    22346536.614          12.250  
 -18086509.793   -14093376.935    20458856.658    20458861.679          12.500  
  -4753225.259    -3703804.131    24340020.381    24340029.754          11.000  
 -26572626.711   -20705918.921    20141989.014    20141993.539          12.500  
  -9032122.721    -7038012.659    23500779.294    23500786.617          11.750  
 -12356016.680    -9628046.767    22883238.100    22883245.846          11.000  
  -6158825.675    -4799089.647    20766203.809    20766208.652          12.500  
  18899587.327    14726915.625    24969996.752    24970009.945          10.250  
  17923927.219    13966661.102    24040418.732    24040430.193          11.000  
 12  1  1  2 58 30.0000000  0  9G 3G 5G 6G11G13G14G18G21G29
 -15998914.336   -12466675.516    22335748.812    22335755.324          12.250  
 -18088397.978   -14094848.263    20458497.042    20458502.306          12.750  
  -4858374.120    -3785738.126    24320010.646    24320019.906          11.500  
 -26609640.399   -20734760.746    20134945.432    20134950.037          12.750  
  -9081670.822    -7076621.539    23491350.782    23491358.070          11.250  
 -12408151.236    -9668671.028    22873316.985    22873324.640          11.250  
  -6117345.741    -4766767.675    20774097.401    20774101.994          12.750  
  19005530.820    14809468.767    24990159.697    24990172.722           9.500  
  18030925.183    14050035.826    24060780.165    24060791.790          10.750  
 12  1  1  2 59  0.0000000  0  9G 3G 5G 6G11G13G14G18G21G29
 -16055477.081   -12510750.349    22324985.475    22324991.632          12.000  
 -18090050.969   -14096136.308    20458183.081    20458187.917          12.750  
  -4963366.411    -3867550.134    24300030.248    24300040.833          11.250  
 -26646093.990   -20763166.124    20128008.623    20128013.038          13.000  
  -9130714.613    -7114837.439    23482017.852    23482025.361          11.250  
 -12459860.839    -9708964.187    22863476.733    22863484.517          11.500  
  -6075430.120    -4734106.192    20782073.744    20782078.383          12.750  
  19111498.676    14892040.943    25010326.442    25010337.126          10.250  
  18137939.002    14133422.934    24081144.371    24081156.041          11.000  
 12  1  1  2 59 30.0000000  0  9G 3G 5G 6G11G13G14G18G21G29
 -16111947.341   -12554753.133    22314239.449    22314245.816          12.250  
 -18091469.126   -14097241.373    20457913.608    20457918.037          13.000  
  -5068200.318    -3949238.726    24280080.574    24280091.614          11.250  
 -26681987.039   -20791134.732    20121178.354    20121183.087          12.750  
  -9179252.621    -7152659.205    23472780.809    23472789.087          11.250  
 -12511142.835    -9748924.118    22853717.960    22853726.000          11.000  
  -6033078.809    -4701105.221    20790133.050    20790137.537          12.750  
  19217489.081    14974630.597    25030495.187    25030505.772          10.250  
  18244965.909    14216820.273    24101510.161    24101522.762          11.250  
 12  1  1  3  0  0.0000000  0  9G 3G 5G 6G11G13G14G18G21G29
 -16168325.362   -12598684.019    22303511.205    22303517.508          12.000  
 -18092652.420   -14098163.434    20457688.483    20457692.609          12.750  
  -5172873.582    -4030802.117    24260162.061    24260173.032          11.000  
 -26717318.705   -20818665.874    20114454.950    20114459.608          12.500  
  -9227283.130    -7190085.535    23463641.404    23463649.019          11.500  
 -12561993.595    -9788548.047    22844041.557    22844049.012          11.750  
  -5990291.674    -4667764.648    20798274.810    20798279.679          12.750  
  19323497.665    15057234.517    25050667.927    25050679.120          10.750  
  18352003.564    14300225.996    24121879.629    24121891.195          11.250  
 12  1  1  3  0 30.0000000  0  9G 3G 5G 6G11G13G14G18G21G29
 -16224610.697   -12642542.674    22292800.124    22292806.311          12.000  
 -18093601.898   -14098903.318    20457507.789    20457511.826          12.750  
  -5277385.236    -4112239.653    24240274.969    24240284.502          11.000  
 -26752089.345   -20845759.880    20107838.547    20107843.144          12.500  
  -9274805.216    -7227115.721    23454598.176    23454605.973          11.250  
 -12612412.321    -9827835.318    22834447.153    22834455.006          11.750  
  -5947069.035    -4634084.744    20806500.198    20806504.876          12.750  
  19429527.301    15139854.789    25070844.828    25070858.071          10.750  
  18459048.011    14383636.941    24142250.112    24142261.096          11.250  
 12  1  1  3  1  0.0000000  0  9G 3G 5G 6G11G13G14G18G21G29
 -16280803.580   -12686329.296    22282106.517    22282113.417          12.000  
 -18094317.647   -14099461.039    20457371.744    20457375.565          12.750  
  -5381733.062    -4193549.482    24220417.866    24220426.959          10.750  
 -26786298.223   -20872416.148    20101328.926    20101333.327          12.500  
  -9321817.184    -7263748.373    23445652.116    23445659.596          10.750  
 -12662395.502    -9866783.165    22824935.920    22824943.444          11.750  
  -5903410.811    -4600065.392    20814808.361    20814812.743          12.500  
  19535573.691    15222488.139    25091024.595    25091036.600          10.250  
  18566096.881    14467051.399    24162620.448    24162632.079          11.000  
 12  1  1  3  1 30.0000000  0  9G 3G 5G 6G11G13G14G18G21G29
 -16336903.949   -12730043.847    22271431.631    22271437.772          12.000  
 -18094799.972   -14099836.876    20457280.067    20457284.061          12.500  
  -5485915.298    -4274730.257    24200592.284    24200601.991          11.000  
 -26819944.963   -20898634.395    20094925.857    20094930.483          12.750  
  -9368317.678    -7299982.488    23436803.533    23436810.569          11.250  
 -12711940.427    -9905389.553    22815507.491    22815515.364          12.000  
  -5859317.092    -4565706.693    20823199.047    20823203.340          12.750  
  19641634.826    15305132.959    25111206.822    25111219.528          10.500  
  18673147.419    14550467.143    24182991.845    24183003.913          11.000  
 12  1  1  3  2  0.0000000  0  8G 3G 5G 6G11G13G14G18G29
 -16392911.861   -12773686.349    22260773.767    22260779.866          12.250  
 -18095049.201   -14100031.096    20457232.432    20457236.282          12.500  
  -5589930.080    -4355780.571    24180798.859    24180808.886          10.750  
 -26853029.236   -20924414.335    20088630.209    20088634.628          12.750  
  -9414305.272    -7335816.974    23428052.703    23428060.010          11.500  
 -12761044.543    -9943652.428    22806163.695    22806171.456          11.750  
  -5814787.918    -4531008.695    20831672.249    20831677.185          12.500  
  18780196.785    14633881.931    24203362.835    24203374.116          11.250  
 12  1  1  3  2 30.0000000  0  8G 3G 5G 6G11G13G14G18G29
 -16448827.309   -12817256.791    22250133.043    22250139.370          12.250  
 -18095065.687   -14100043.957    20457229.471    20457233.410          12.750  
  -5693775.611    -4436699.079    24161037.630    24161047.341          11.000  
 -26885550.716   -20949755.720    20082441.539    20082446.004          12.750  
  -9459778.657    -7371250.733    23419398.732    23419406.214          11.500  
 -12809705.189    -9981569.785    22796903.153    22796911.745          11.250  
  -5769823.399    -4495971.464    20840228.728    20840233.646          12.750  
  18887242.098    14717293.567    24223732.664    24223745.809          11.250  
 12  1  1  3  3  0.0000000  0  8G 3G 5G 6G11G13G14G18G29
 -16504650.224   -12860755.123    22239510.642    22239516.598          12.000  
 -18094849.758   -14099875.726    20457270.278    20457274.386          12.750  
  -5797450.171    -4517484.305    24141308.795    24141318.571          11.250  
 -26917509.095   -20974658.369    20076359.988    20076364.686          12.750  
  -9504736.439    -7406282.746    23410843.435    23410851.107          11.500  
 -12857919.863   -10019139.623    22787728.551    22787736.419          11.750  
  -5724423.669    -4460595.107    20848868.361    20848872.900          12.750  
  18994280.509    14800699.873    24244101.889    24244114.770          11.250  
 12  1  1  3  3 30.0000000  0  8G 3G 5G 6G11G13G14G18G29
 -16560380.600   -12904181.366    22228905.311    22228911.553          12.000  
 -18094401.792   -14099526.664    20457355.594    20457359.564          12.250  
  -5900951.969    -4598134.854    24121612.756    24121623.402          11.250  
 -26948904.111   -20999122.002    20070386.107    20070390.169          12.750  
  -9549177.336    -7440911.959    23402386.578    23402394.516          11.750  
 -12905685.971   -10056359.885    22778638.867    22778646.707          11.500  
  -5678588.834    -4424879.724    20857590.411    20857595.016          12.500  
  19101309.275    14884098.627    24264469.035    24264480.881          10.500  
 12  1  1  3  4  0.0000000  0  8G 3G 5G 6G11G13G14G18G29
 -16616018.437   -12947535.484    22218317.954    22218323.479          12.250  
 -18093722.076   -14098997.037    20457484.900    20457489.087          12.500  
  -6004279.193    -4678649.398    24101949.956    24101960.779          11.250  
 -26979735.512   -21023146.464    20064519.102    20064523.362          12.750  
  -9593100.040    -7475137.403    23394027.764    23394036.176          11.500  
 -12953000.925   -10093228.663    22769634.917    22769642.995          11.750  
  -5632319.073    -4388825.418    20866395.241    20866400.011          12.750  
  19208325.610    14967487.676    24284834.105    24284847.177          10.000  
